Agency,Date Added,Project,Name_of_Lo,Street_Num,Address,City,Zipcode,County,Target_Aud,Agency_name,lon,lat,loctype,search_add
1,1/1/2018,"Food Talk, Food Talk:Better U",Bartow Headstart,15,Felton Place St.,Cartersville,30121,Bartow,Adults 18+,UGA,-84.7927993,34.1952139,range_interpolated,"15 Felton Place St.,Cartersville,GA,30121"
1,1/1/2018,"Food Talk, Food Talk:Better U",Habitat for Humanity,532,Barber St.,Athens,30901,Clarke,Adults 18+,UGA,-83.3860425,33.967854,rooftop,"532 Barber St.,Athens,GA,30901"
1,1/1/2018,"Food Talk, Food Talk:Better U",PALS,1860,Barnett Shoals Rd.,Athens,30605,Clarke,Adults 18+,UGA,-83.341195,33.9250318,rooftop,"1860 Barnett Shoals Rd.,Athens,GA,30605"
1,1/1/2018,HCCG: Pre-K Classrooms,Clarke County School District: Barnett Shoals Elementary School,3220,Barnett Shoals Rd.,Athens,30605,Clarke,Pre-K children (3-5)  Pre_K Teachers 18+  Parents 18+,UGA,-83.338064,33.902135,rooftop,"3220 Barnett Shoals Rd.,Athens,GA,30605"
1,1/1/2018,"Food Talk, Food Talk:Better U",Kinship Care Resource Center,849,Battle Creek Rd.,Jonesboro,30236,Clayton,Adults 18+,UGA,-84.36449,33.554024,rooftop,"849 Battle Creek Rd.,Jonesboro,GA,30236"
1,1/1/2018,"Food Talk, Food Talk:Better U",The Cove,15,Liberty Square Dr.,Cartersville,30121,Bartow,Adults 18+,UGA,-84.7823845,34.2143327,range_interpolated,"15 Liberty Square Dr.,Cartersville,GA,30121"
1,1/1/2018,"Food Talk, Food Talk: Better U",ATCO-Senior Center,25,Relihan St.,Pearson,31642,Coffee,Adults 18+,UGA,-82.8451218,31.2920678,range_interpolated,"25 Relihan St.,Pearson,GA,31642"
1,1/1/2018,"Food Talk, Food Talk: Better U",DeKalb/Atlanta Senior Center,25,Warren St.,Atlanta,30317,DeKalb,Adults 18+,UGA,-84.3268042,33.7527924,rooftop,"25 Warren St.,Atlanta,GA,30317"
1,1/1/2018,"Food Talk, Food Talk: Better U",Willacoochee Senior Center,68,Boone St.,Wilacoochee,31650,Coffee,Adults 18+,UGA,-83.0496883,31.339572,rooftop,"68 Boone St.,Wilacoochee,GA,31650"
1,1/1/2018,"Food Talk, Food Talk: Better U, Food Talk: Farmers Market",Adams Park Library,2231,"Cambelton Rd., SW",Atlanta,30311,Fulton,Adults 18+,UGA,-84.461676,33.705695,rooftop,"2231 Cambelton Rd., SW,Atlanta,GA,30311"
1,1/1/2018,"Food Talk, Food Talk: Better U",Senior Connection,1931,Candler Rd.,Decatur,30032,DeKalb,Adults 18+,UGA,-84.2862172,33.7342694,rooftop,"1931 Candler Rd.,Decatur,GA,30032"
1,1/1/2018,HCCG: Pre-K Classrooms,Clarke County School District: Chase Street Elementary School,757,Chase St.,Athens,30601,Clarke,Pre-K children (3-5)  Pre_K Teachers 18+  Parents 18+,UGA,-83.394176,33.9646803,rooftop,"757 Chase St.,Athens,GA,30601"
1,1/1/2018,"Food Talk, Food Talk: Better U, Food Talk: Farmers Market",Exchange Recreation Center,2771,Columbia Dr.,Decatur,30034,DeKalb,Adults 18+,UGA,-84.2537527,33.7074199,rooftop,"2771 Columbia Dr.,Decatur,GA,30034"
1,1/1/2018,"Food Talk, Food Talk:Better U",RHEMA,1850,Danielsville Rd.,Athens,30601,Clarke,Adults 18+,UGA,-83.352669,33.999623,rooftop,"1850 Danielsville Rd.,Athens,GA,30601"
1,1/1/2018,"Food Talk, Food Talk: Better U",Haven G5,967,Dewey St.,Atlanta,30310,Fulton,Adults 18+,UGA,-84.4075239,33.7284173,rooftop,"967 Dewey St.,Atlanta,GA,30310"
1,1/1/2018,"Food Talk, Food Talk: Better U",Dogwood Seniors,1838,Donald Lee Hollowell Pkwy NW,Atlanta,30318,Fulton,Adults 18+,UGA,-84.4470368,33.7740391,rooftop,"1838 Donald Lee Hollowell Pkwy NW,Atlanta,GA,30318"
1,1/1/2018,HCCG: Pre-K Classrooms,Clarke County School District: Barrow Elementary School,100,Pinecrest Dr.,Athens,30605,Clarke,Pre-K children (3-5)  Pre_K Teachers 18+  Parents 18+,UGA,-83.3826533,33.9420131,rooftop,"100 Pinecrest Dr.,Athens,GA,30605"
1,1/1/2018,"Food Talk, Food Talk: Better U",Concerted Services-Pearson,818,E. Austin Ave.,Pearson,31642,Coffee,Adults 18+,UGA,-82.8438493,31.2936841,range_interpolated,"818 E. Austin Ave.,Pearson,GA,31642"
1,1/1/2018,"Food Talk, Food Talk:Better U",Paxen,121,E. Felton Rd.,Cartersville,30120,Bartow,Adults 18+,UGA,-84.7944615,34.1963057,rooftop,"121 E. Felton Rd.,Cartersville,GA,30120"
1,1/1/2018,"Food Talk, Food Talk:Better U",Adairsville United Methodist Church,102,S. Main St.,Adairsville,30103,Bartow,Adults 18+,UGA,-84.9345705,34.3679698,rooftop,"102 S. Main St.,Adairsville,GA,30103"
1,1/1/2018,"Food Talk, Food Talk:Better U",Bartow Family Resources,200,Leake St.,Cartersville,30120,Bartow,Adults 18+,UGA,-84.8003137,34.1620161,rooftop,"200 Leake St.,Cartersville,GA,30120"
1,1/1/2018,"Food Talk, Food Talk:Better U",Allatoona Resource Center,6503,Glade Rd. SE,Acworth,30101,Bartow,Adults 18+,UGA,-84.681162,34.1137254,rooftop,"6503 Glade Rd. SE,Acworth,GA,30101"
1,1/1/2018,"Food Talk, Food Talk: Better U",Magnolia Room,200,S. Madison Ave. #C,Douglas,31533,Coffee,Adults 18+,UGA,-82.84886,31.50722,rooftop,"200 S. Madison Ave. #C,Douglas,GA,31533"
1,1/1/2018,"Food Talk, Food Talk:Better U",Hamilton Mill Crossing,116,Hamilton Crossing Rd. NW,Cartersville,30120,Bartow,Adults 18+,UGA,-84.8660329,34.2392634,rooftop,"116 Hamilton Crossing Rd. NW,Cartersville,GA,30120"
1,1/1/2018,"Food Talk, Food Talk:Better U",Episcopal Food Pantry,205,W. Cherokee Ave.,Cartersville,30120,Bartow,Adults 18+,UGA,-84.8010164,34.1655814,rooftop,"205 W. Cherokee Ave.,Cartersville,GA,30120"
1,1/1/2018,"Food Talk, Food Talk:Better U",Athens Community on Aging,135,Hoyt St.,Athens,30601,Clarke,Adults 18+,UGA,-83.3794891,33.9643744,rooftop,"135 Hoyt St.,Athens,GA,30601"
1,1/1/2018,"Food Talk, Food Talk:Better U",Advantage Behavioral Health Center,250,North Ave.,Athens,30601,Clarke,Adults 18+,UGA,-83.3650244,33.9717296,rooftop,"250 North Ave.,Athens,GA,30601"
1,1/1/2018,"Food Talk, Food Talk:Better U",Greater Bethel Episcopal Church,250,Rose St.,Athens,30601,Clarke,Adults 18+,UGA,-83.3650528,34.0458234,range_interpolated,"250 Rose St.,Athens,GA,30601"
1,1/1/2018,HCCG: Pre-K Classrooms,Clarke County School District: Winterville Elementary School,305,Cherokee Rd.,Winterville,30683,Clarke,Pre-K children (3-5)  Pre_K Teachers 18+  Parents 18+,UGA,-83.2897798,33.9699357,rooftop,"305 Cherokee Rd.,Winterville,GA,30683"
1,1/1/2018,"Food Talk, Food Talk:Better U",Diversions Center,2725,Lexington Rd.,Athens,30606,Clarke,Adults 18+,UGA,-83.3315383,33.9430774,rooftop,"2725 Lexington Rd.,Athens,GA,30606"
1,1/1/2018,"Food Talk, Food Talk:Better U",Goodwill Career Center,4070,Lexington Rd.,Athens,30605,Clarke,Adults 18+,UGA,-83.3230366,33.9369361,rooftop,"4070 Lexington Rd.,Athens,GA,30605"
1,1/1/2018,"Food Talk, Food Talk:Better U, Food Talk:Farmers Market",Morrow Library,6225,Maddox Rd.,Morrow,30260,Clayton,Adults 18+,UGA,-84.314123,33.584986,rooftop,"6225 Maddox Rd.,Morrow,GA,30260"
1,1/1/2018,"Food Talk, Food Talk: Better U",Salvation Army,469,Marietta St.,Atlanta,30313,Fulton,Adults 18+,UGA,-84.3969815,33.7656876,rooftop,"469 Marietta St.,Atlanta,GA,30313"
1,1/1/2018,"Food Talk, Food Talk: Better U",Adamsville Senior Center,3537,"Martin Luther King, Jr.Dr.",Atlanta,30331,Fulton,Adults 18+,UGA,-84.5026374,33.7590469,rooftop,"3537 Martin Luther King, Jr.Dr.,Atlanta,GA,30331"
1,1/1/2018,"Food Talk, Food Talk:Better U",South Clayton Recreation Center,1837,McDonough Rd.,Hampton,30228,Clayton,Adults 18+,UGA,-84.3316233,33.4476849,rooftop,"1837 McDonough Rd.,Hampton,GA,30228"
1,1/1/2018,"Food Talk, Food Talk: Better U",Genesis Alliance Mental Health,4540,Memorial Dr.,Decatur,30032,DeKalb,Adults 18+,UGA,-84.2429391,33.780744,rooftop,"4540 Memorial Dr.,Decatur,GA,30032"
1,1/1/2018,"Food Talk, Food Talk: Better U",Essence of Hope,2031,Metropolitan Pwky. SW,Atlanta,30315,Fulton,Adults 18+,UGA,-84.4081967,33.6987501,rooftop,"2031 Metropolitan Pwky. SW,Atlanta,GA,30315"
1,1/1/2018,"Food Talk, Food Talk: Better U",DeKalb Court,556,N. McDonough St.,Decatur,30030,DeKalb,Adults 18+,UGA,-84.2972218,33.7740686,rooftop,"556 N. McDonough St.,Decatur,GA,30030"
1,1/1/2018,"Food Talk, Food Talk: Better U",ATCO-Wiregrass,59,N. Pearson St.,Pearson,31642,Coffee,Adults 18+,UGA,-82.8506505,31.2989189,range_interpolated,"59 N. Pearson St.,Pearson,GA,31642"
1,1/1/2018,"Food Talk, Food Talk:Better U",Live Forward,240,North Ave.,Athens,30601,Clarke,Adults 18+,UGA,-83.3676315,33.9705363,rooftop,"240 North Ave.,Athens,GA,30601"
1,1/1/2018,"Food Talk, Food Talk: Better U",Matthew's Place,565,Larkin St.,Atlanta,30313,Fulton,Adults 18+,UGA,-84.405215,33.7480148,range_interpolated,"565 Larkin St.,Atlanta,GA,30313"
1,1/1/2018,"Food Talk, Food Talk:Better U",Mercy Health Center,700,Oglethorpe Ave.,Athens,30606,Clarke,Adults 18+,UGA,-83.4124717,33.9631067,rooftop,"700 Oglethorpe Ave.,Athens,GA,30606"
1,1/1/2018,"Food Talk, Food Talk:Better U",Rollins Child Development,676,Henderson Dr.,Cartersville,30120,Bartow,Adults 18+,UGA,-84.8174524,34.1526443,rooftop,"676 Henderson Dr.,Cartersville,GA,30120"
1,1/1/2018,"Food Talk, Food Talk: Better U",New Horizons,745,Orr St.,Atlanta,30314,Fulton,Adults 18+,UGA,-84.4116819,33.7626371,rooftop,"745 Orr St.,Atlanta,GA,30314"
1,1/1/2018,Housing Services,The Gardens Apartments,899,Park St.,Atlanta,30310,Fulton,Adults 18+,UGA,-84.4172108,33.7422408,rooftop,"899 Park St.,Atlanta,GA,30310"
1,1/1/2018,"Food Talk, Food Talk: Better U",Brooks Hill,185,Penland St.,Ellijay,30540,Gilmer,Adults 18+,UGA,-84.4863215,34.7052953,rooftop,"185 Penland St.,Ellijay,GA,30540"
1,1/1/2018,HCCG: Pre-K Classrooms,Clarke County School District: Gaines Elementary School,900,Gaines School Rd.,Athens,30605,Clarke,Pre-K children (3-5)  Pre-K Teachers 18+  Parents 18+,UGA,-83.3371582,33.9297539,rooftop,"900 Gaines School Rd.,Athens,GA,30605"
1,1/1/2018,"Food Talk, Food Talk: Better U",Gilmer County Extension Office,1123,Progress Rd.,Eljay,30540,Gilmer,Adults 18+,UGA,-84.4898445,34.676409,rooftop,"1123 Progress Rd.,Eljay,GA,30540"
1,1/1/2018,"Food Talk, Food Talk:Better U",Clayton Community Services Authority,1000,Main St.,Forest Park,30297,Clayton,Adults 18+,UGA,-84.3573996,33.6205692,rooftop,"1000 Main St.,Forest Park,GA,30297"
1,1/1/2018,"Food Talk, Food Talk:Better U",Clayton County Service Authority/Food Pantry,1000,Main St.,Forest Park,30297,Clayton,Adults 18+,UGA,-84.3573996,33.6205692,rooftop,"1000 Main St.,Forest Park,GA,30297"
1,1/1/2018,"Food Talk, Food Talk:Better U",New Joy,496,Resse St.,Athens,30601,Clarke,Adults 18+,UGA,-83.3858581,33.9568996,rooftop,"496 Resse St.,Athens,GA,30601"
1,1/1/2018,"Food Talk, Food Talk: Better U",Concerted Services-Douglas,1115,W. Baker Hwy.,Douglas,31533,Coffee,Adults 18+,UGA,-82.8639328,31.501293,rooftop,"1115 W. Baker Hwy.,Douglas,GA,31533"
1,1/1/2018,"Food Talk, Food Talk:Better U",24/7 Dads,1117,Battle Creek Rd.,Jonesboro,30236,Clayton,Adults 18+,UGA,-84.354452,33.5520572,rooftop,"1117 Battle Creek Rd.,Jonesboro,GA,30236"
1,1/1/2018,"Food Talk, Food Talk: Better U",ClaytonCounty Board of Health,1117,Battlecreek Rd.,Jonesboro,30236,Clayton,Adults 18+,UGA,-84.354452,33.5520572,rooftop,"1117 Battlecreek Rd.,Jonesboro,GA,30236"
1,1/1/2018,HCCG: Pre-K Classrooms,Clarke County School District: Oglethorpe Elementary School,1150,Oglethorpe Ave.,Athens,30606,Clarke,Pre-K children (3-5)  Pre_K Teachers 18+  Parents 18+,UGA,-83.4226254,33.9633663,rooftop,"1150 Oglethorpe Ave.,Athens,GA,30606"
1,1/1/2018,Easter Seals: Head Start Classrooms,Easter Seals of Northeast Georgia: Madison County Head Start,85,Rock Quarry Rd.,Danielsville,30633,Madison,Head Start children (3-5)  Head Start Teachers 18+  Parents 18+,UGA,-83.2149941,34.1366127,rooftop,"85 Rock Quarry Rd.,Danielsville,GA,30633"
1,1/1/2018,"Food Talk, Food Talk:Better U",Timothy Woods Apartments,2085,S.Miledge St.,Athens,30605,Clarke,Adults 18+,UGA,-83.3777469,33.9237182,rooftop,"2085 S.Miledge St.,Athens,GA,30605"
1,1/1/2018,"Food Talk, Food Talk:Better U",Athens Housing Authority,300,S.Rock Springs St.,Athens,30601,Clarke,Adults 18+,UGA,-83.393286,33.950999,rooftop,"300 S.Rock Springs St.,Athens,GA,30601"
1,1/1/2018,"Food Talk, Food Talk: Better U",Salvation Army - Clayton County,130,Spring St.,Jonesboro,30236,Clayton,Adults 18+,UGA,-84.3574578,33.5253351,rooftop,"130 Spring St.,Jonesboro,GA,30236"
1,1/1/2018,"Food Talk, Food Talk: Better U",Bobby Dodd,221,Stockbridge Rd.,Jonesboro,30236,Clayton,Adults 18+,UGA,-84.3485933,33.5256908,rooftop,"221 Stockbridge Rd.,Jonesboro,GA,30236"
1,1/1/2018,"Food Talk, Food Talk: Better U",Veranda at Carver,217,Thirkield Ave.,Atlanta,30315,Fulton,Adults 18+,UGA,-84.3833105,33.7148857,range_interpolated,"217 Thirkield Ave.,Atlanta,GA,30315"
1,1/1/2018,"Food Talk, Food Talk: Better U",Coffee High School,159,Trojan Way,Douglas,31533,Coffee,Adults 18+,UGA,-82.8611803,31.5522282,rooftop,"159 Trojan Way,Douglas,GA,31533"
1,1/1/2018,"Food Talk, Food Talk:Better U, Food Talk:Farmers Market",Riverdale Library,420,Valley Hill Rd.,Riverdale,30274,Clayton,Adults 18+,UGA,-84.4039771,33.5701123,rooftop,"420 Valley Hill Rd.,Riverdale,GA,30274"
1,1/1/2018,"Food Talk, Food Talk: Better U",Wiregrass GED,706,W. Baker Hwy.,Douglas,31533,Coffee,Adults 18+,UGA,-82.8583149,31.5009396,rooftop,"706 W. Baker Hwy.,Douglas,GA,31533"
1,1/1/2018,HCCG: Pre-K Classrooms,Clarke County School District: Cleveland Road Elementary School,1700,Cleveland Rd.,Bogart,30622,Clarke,Pre-K children (3-5)  Pre_K Teachers 18+  Parents 18+,UGA,-83.505146,33.967061,rooftop,"1700 Cleveland Rd.,Bogart,GA,30622"
1,1/1/2018,"Food Talk, Food Talk: Better U",Douglas County Senior Center,408,W.Ward St.,Douglas,31533,Coffee,Adults 18+,UGA,-82.8553204,31.5087674,range_interpolated,"408 W.Ward St.,Douglas,GA,31533"
1,1/1/2018,"Food Talk, Food Talk:Better U",Hope Haven,2152,West Broad St.,Athens,30601,Clarke,Adults 18+,UGA,-83.4069829,33.9509009,rooftop,"2152 West Broad St.,Athens,GA,30601"
1,1/1/2018,"Food Talk, Food Talk:Better U. Food Talk: Farmers Market",Forest Park Library,4812,West St.,Forest Park,30297,Clayton,Adults 18+,UGA,-84.3678664,33.6231094,rooftop,"4812 West St.,Forest Park,GA,30297"
1,1/1/2018,HCCG: Pre-K Classrooms,Clarke County School District: Whit Davis Elementary School,1450,Whit Davis Rd.,Athens,30605,Clarke,Pre-K children (3-5)  Pre_K Teachers 18+  Parents 18+,UGA,-83.3172223,33.9042853,rooftop,"1450 Whit Davis Rd.,Athens,GA,30605"
1,1/1/2018,HCCG: Pre-K Classrooms,Clarke County School District: Timothy Road Elementary School,1900,Timothy Rd.,Athens,30606,Clarke,Pre-K children (3-5)  Pre-K Teachers 18+  Parents 18+,UGA,-83.4462891,33.9372981,rooftop,"1900 Timothy Rd.,Athens,GA,30606"
1,1/1/2018,HCCG: ECE Collaborative,Clarke County School District Office of Early Learning,440-2,Dearing Extension,Athens,30606,Clarke,Pre-K Teachers 18+,UGA,-83.4007836,33.9501655,rooftop,"440-2 Dearing Extension,Athens,GA,30606"
1,1/1/2018,HCCG: ECE Collaborative,Clarke County School District Office of Early Learning,440-2,Dearing Extension,Athens,30606,Clarke,Pre-K Teachers 18+,UGA,-83.4007836,33.9501655,rooftop,"440-2 Dearing Extension,Athens,GA,30606"
1,1/1/2018,HCCG: ECE Collaborative,Clarke County School District Office of Early Learning,440-2,Dearing Extension,Athens,30606,Clarke,Pre-K Teachers 18+,UGA,-83.4007836,33.9501655,rooftop,"440-2 Dearing Extension,Athens,GA,30606"
1,1/1/2018,HCCG: ECE Collaborative,Clarke County School District Office of Early Learning,440-2,Dearing Extension,Athens,30606,Clarke,Pre-K Teachers 18+,UGA,-83.4007836,33.9501655,rooftop,"440-2 Dearing Extension,Athens,GA,30606"
1,1/1/2018,HCCG: ECE Collaborative,Clarke County School District Office of Early Learning,440-2,Dearing Extension,Athens,30606,Clarke,Pre-K Teachers 18+,UGA,-83.4007836,33.9501655,rooftop,"440-2 Dearing Extension,Athens,GA,30606"
1,1/1/2018,HCCG: ECE Collaborative,Clarke County School District Office of Early Learning,440-2,Dearing Extension,Athens,30606,Clarke,Pre-K Teachers 18+,UGA,-83.4007836,33.9501655,rooftop,"440-2 Dearing Extension,Athens,GA,30606"
1,1/1/2018,HCCG: ECE Collaborative,Clarke County School District Office of Early Learning,440-2,Dearing Extension,Athens,30606,Clarke,Pre-K Teachers 18+,UGA,-83.4007836,33.9501655,rooftop,"440-2 Dearing Extension,Athens,GA,30606"
1,1/1/2018,HCCG: ECE Collaborative,Clarke County School District Office of Early Learning,440-2,Dearing Extension,Athens,30606,Clarke,Pre-K Teachers 18+,UGA,-83.4007836,33.9501655,rooftop,"440-2 Dearing Extension,Athens,GA,30606"
1,1/1/2018,Food Talk and Food Talk: Better U,Atlanta Habitat for Humanity,824,Memorial Dr SE,Atlanta,30316,Fulton,Adults 18+,UGA,-84.3607482,33.7467781,rooftop,"824 Memorial Dr SE,Atlanta,GA,30316"
1,1/1/2018,Food Talk and Food Talk: Better U,Atlanta Habitat for Humanity,824,Memorial Dr SE,Atlanta,30316,Fulton,Adults 18+,UGA,-84.360275,33.747102,rooftop,"824 Memorial Dr SE,Atlanta,GA,30316"
1,1/1/2018,Outreach Event,Fall Festival,3499,Rex Rd,Rex,30273,Clayton,Adults 18+,UGA,-84.276728,33.5893002,rooftop,"3499 Rex Rd,Rex,GA,30273"
1,1/1/2018,Food Talk: Farmers Market and Outreach Event,St. Mary's Hospital,1230,Baxter St,Athens,30606,Clarke,Adults 18+,UGA,-83.405571,33.947691,rooftop,"1230 Baxter St,Athens,GA,30606"
1,1/1/2018,Food Talk: Farmers Market and Outreach Event,Rashe's Cuisine,211,Tallassee Rd,Athens,30606,Clarke,Adults 18+,UGA,-83.430651,33.9658291,rooftop,"211 Tallassee Rd,Athens,GA,30606"
1,1/1/2018,Outreach Event,Greater Bethany Baptist Church,786,Thurmond St,Atlanta,30314,Fulton,Adults 18+,UGA,-84.4131446,33.7602538,rooftop,"786 Thurmond St,Atlanta,GA,30314"
1,1/1/2018,Outreach Event,Greater Bethany Baptist Church,786,Thurmond St,Atlanta,30314,Fulton,Adults 18+,UGA,-84.4131446,33.7602538,rooftop,"786 Thurmond St,Atlanta,GA,30314"
1,1/1/2018,Outreach Event,Greater Bethany Baptist Church,786,Thurmond St,Atlanta,30314,Fulton,Adults 18+,UGA,-84.4131446,33.7602538,rooftop,"786 Thurmond St,Atlanta,GA,30314"
1,1/1/2018,Outreach Event,Greater Bethany Baptist Church,786,Thurmond St,Atlanta,30314,Fulton,Adults 18+,UGA,-84.4131446,33.7602538,rooftop,"786 Thurmond St,Atlanta,GA,30314"
1,1/1/2018,"FT, FTBU, FTFM, Outreach",Oakhurst Medical Center,5582,Memorial Drive,Stone Mountain,30083,DeKalb,Adults 18+,UGA,-84.2096732,33.8016793,rooftop,"5582 Memorial Drive,Stone Mountain,GA,30083"
1,1/1/2018,"FT, FTBU, FTFM, Outreach",Bishop Park,705,Sunset Drive,Athens,30606,Clarke,Adults 18+,UGA,-83.4121317,33.9644564,rooftop,"705 Sunset Drive,Athens,GA,30606"
1,1/1/2018,FTFM,Creature Comforts,271,W. Hancock Ave,Athens,30601,Clarke,Adults 18+,UGA,-83.380191,33.9589638,rooftop,"271 W. Hancock Ave,Athens,GA,30601"
1,1/1/2018,Food Talk and Food Talk: Better U,The Kindezi School West,286,Wilson Mill Rd,Atlanta,30331,Fulton,Adults 18+,UGA,-84.513546,33.7547859,rooftop,"286 Wilson Mill Rd,Atlanta,GA,30331"
1,1/1/2018,Food Talk and FT Better U,Fannin Food Pantry,101,Industrial Park Rd.,Blue Ridge,30513,Fannin,Adults 18+,UGA,-84.3113481,34.8843384,rooftop,"101 Industrial Park Rd.,Blue Ridge,GA,30513"
1,1/1/2018,Outreach,Cartersville First Baptist Church,241,Douthit Ferry Rd,Cartersville,30120,Bartow,Adults 18+,UGA,-84.8257348,34.1471773,rooftop,"241 Douthit Ferry Rd,Cartersville,GA,30120"
1,1/1/2018,"FT, FTBU, Outreach",Sparrow's Nest,745,Prince Ave,Athens,30606,Clarke,Adults 18+,UGA,-83.3898381,33.9610816,rooftop,"745 Prince Ave,Athens,GA,30606"
1,1/1/2018,"FT, FTBU, Outreach",Fourth Street Village Apartments,690,Fourth Street,Athens,30601,Clarke,Adults 18+,UGA,-83.359519,33.970698,rooftop,"690 Fourth Street,Athens,GA,30601"
1,1/1/2018,Food Talk and Food Talk: Better U,Sheltering Arms,5020,Stonewall Tell Rd,College Park,30349,Fulton,Adults 18+,UGA,-84.5524547,33.5998841,rooftop,"5020 Stonewall Tell Rd,College Park,GA,30349"
1,1/1/2018,Food Talk and FT Better U,Kingston Baptist,40,Main St,Kingston,30145,Bartow,Adults 18+,UGA,-84.9438308,34.2350046,range_interpolated,"40 Main St,Kingston,GA,30145"
1,1/1/2018,"FT, FTBU, FTFM, Outreach",Bethel Midtown Village,155,Hickman Dr,Athens,30601,Clarke,Adults 18+,UGA,-83.3785046,33.9620686,rooftop,"155 Hickman Dr,Athens,GA,30601"
1,1/1/2018,FTFM,Greater Works Missionary Baptist Church/Food Pantry,295,Morrow Rd,Forest Park,30297,Clayton,Adults 18+,UGA,-84.3804921,33.5912162,rooftop,"295 Morrow Rd,Forest Park,GA,30297"
1,1/1/2018,Outreach Event,Georgia Mountains Health Services,165,Blue Ridge Overlook,Blue Ridge,30513,Fannin,Adults 18+,UGA,-84.3263862,34.8756919,rooftop,"165 Blue Ridge Overlook,Blue Ridge,GA,30513"
1,1/1/2018,"FT,FTBU,FTFM Outreach",Cam Fulton/Truitt 4-H Center,4300,Hershel Road,College Park,30337,Fulton,Adults 18+,UGA,-84.4722799,33.6383647,rooftop,"4300 Hershel Road,College Park,GA,30337"
1,1/1/2018,NA,Our House,173,Boulevard,Atlanta,30312,Fulton,Adults 18+,UGA,-84.3717056,33.7591379,rooftop,"173 Boulevard,Atlanta,GA,30312"
1,1/1/2018,NA,The Good Samaritan,1015,Donald Lee Holowell PKWY,Atlanta,30318,Fulton,Adults 18+,UGA,-84.4206515,33.7736322,rooftop,"1015 Donald Lee Holowell PKWY,Atlanta,GA,30318"
1,1/1/2018,NA,Genesis Alliance Mental Health,4540,Memorial Dr. # C,Decatur,30032,DeKalb,Adults 18+,UGA,-84.2429391,33.780744,rooftop,"4540 Memorial Dr. # C,Decatur,GA,30032"
1,1/1/2018,NA,Cartersville Boys and Girls Clubs,642,Henderson Dr,Cartersville,30120,Bartow,Adults 18+,UGA,-84.8173767,34.1539515,rooftop,"642 Henderson Dr,Cartersville,GA,30120"
1,1/1/2018,Outreach,Chamblee Library,4115,Clairmont Road,Chamblee,30341,DeKalb,Adults 18+,UGA,-84.308739,33.8823099,rooftop,"4115 Clairmont Road,Chamblee,GA,30341"
1,1/1/2018,Outreach,Covington Library,3500,Covington Highway,Decatur,30032,DeKalb,Adults 18+,UGA,-84.2508421,33.7672718,rooftop,"3500 Covington Highway,Decatur,GA,30032"
1,1/1/2018,Outreach,Doraville Library,3748,Central Ave.,Doraville,30340,DeKalb,Adults 18+,UGA,-84.2783348,33.9015004,rooftop,"3748 Central Ave.,Doraville,GA,30340"
1,1/1/2018,Outreach,Dunwoody Library,5339,Chamblee-Dunwoody Road,Dunwoody,30338,DeKalb,Adults 18+,UGA,-84.3317741,33.9446504,rooftop,"5339 Chamblee-Dunwoody Road,Dunwoody,GA,30338"
1,1/1/2018,Outreach,Embry Hills Library,3733,Chamblee-Tucker Road,Chamblee,30341,DeKalb,Adults 18+,UGA,-84.2415226,33.8833991,rooftop,"3733 Chamblee-Tucker Road,Chamblee,GA,30341"
1,1/1/2018,Outreach,Gresham Library,2418,2418 Gresham Road SE,Atlanta,30316,DeKalb,Adults 18+,UGA,-84.3097882,33.718128,rooftop,"2418 Gresham Road SE,Atlanta,GA,30316"
1,1/1/2018,Outreach,Northlake-Barbara Loar Library,3772,LaVista Road,Tucker,30084,DeKalb,Adults 18+,UGA,-84.2610724,33.8418381,rooftop,"3772 LaVista Road,Tucker,GA,30084"
1,1/1/2018,Outreach,Salem-Panola Library,5137,Salem Road,Lithonia,30038,DeKalb,Adults 18+,UGA,-84.1779532,33.6780832,rooftop,"5137 Salem Road,Lithonia,GA,30038"
1,1/1/2018,Outreach,Tucker-Reid H. Cofer Library,5234,LaVista Road,Tucker,30084,DeKalb,Adults 18+,UGA,-84.2087529,33.8572693,rooftop,"5234 LaVista Road,Tucker,GA,30084"
1,1/1/2018,Outreach,Wesley Chapel-William C. Brown Library,2861,Wesley Chapel Road,Decatur,30034,DeKalb,Adults 18+,UGA,-84.2211536,33.7043247,rooftop,"2861 Wesley Chapel Road,Decatur,GA,30034"
1,1/1/2018,Outreach,Hairston Crossing Library,4911,Redan Road,Stone Mountain,30088,DeKalb,Adults 18+,UGA,-84.1920135,33.7588599,rooftop,"4911 Redan Road,Stone Mountain,GA,30088"
1,1/1/2018,Outreach,Flat Shoals Library,4022,Flat Shoals Pkwy.,Decatur,30034,DeKalb,Adults 18+,UGA,-84.25826,33.6913931,rooftop,"4022 Flat Shoals Pkwy.,Decatur,GA,30034"
1,1/1/2018,Outreach,Decatur Library,215,Sycamore St,Decatur,30030,DeKalb,Adults 18+,UGA,-84.2940387,33.7741573,rooftop,"215 Sycamore St,Decatur,GA,30030"
1,1/1/2018,Outreach,Stone Mountain-Sue Kellogg Library,952,Leon St,Stone Mountain,30083,DeKalb,Adults 18+,UGA,-84.1713029,33.8061596,rooftop,"952 Leon St,Stone Mountain,GA,30083"
1,1/1/2018,Outreach,Lithonia-Davidson Library,6821,Church St,Lithonia,30058,DeKalb,Adults 18+,UGA,-84.1090924,33.7122468,rooftop,"6821 Church St,Lithonia,GA,30058"
1,1/1/2018,Outreach,Clarkston Library,951,N Indian Creek Dr,Clarkston,30021,DeKalb,Adults 18+,UGA,-84.2387008,33.8049361,rooftop,"951 N Indian Creek Dr,Clarkston,GA,30021"
1,1/1/2018,Outreach,Scott Candler Library,1917,Candler Rd.,Decatur,30032,DeKalb,Adults 18+,UGA,-84.2860783,33.7346414,rooftop,"1917 Candler Rd.,Decatur,GA,30032"
1,1/1/2018,"FT, FTBU, FTFM, Outreach",Downtown Academy,180,Pulaski St,Athens,30601,Clarke,Adults 18+,UGA,-83.3800345,33.9573507,range_interpolated,"180 Pulaski St,Athens,GA,30601"
1,1/1/2018,"FT, FTBU, FTFM, Outreach",Sheltering Arms - Oakley Township Center,7210,Oakley Terrace,Union City,30291,Fulton,Adults 18+,UGA,-84.528964,33.5569909,rooftop,"7210 Oakley Terrace,Union City,GA,30291"
1,1/1/2018,"FT, FTBU, FTFM, Outreach",Caring Works,4035,"Seven Oak Lane, Apt C",East Point,30344,Fulton,Adults 18+,UGA,-84.4910057,33.6449412,rooftop,"4035 Seven Oak Lane, Apt C,East Point,GA,30344"
1,1/1/2018,Outreach,Salvation Army Atlanta Peachtree Corps,3500,Sherrydale Lane,Decatur,30032,DeKalb,Adults 18+,UGA,-84.2465657,33.7463211,NA,"3500 Sherrydale Lane,Decatur,GA,30032"
1,1/1/2018,"FTFM, Outreach",Mundy Mills High School (location of a health/wellness event),9652,Fayetteville Rd,Jonesboro,30228,Clayton,Adults 18+,UGA,-84.3839377,33.4914652,NA,"9652 Fayetteville Rd,Jonesboro,GA,30228"
1,1/1/2018,Food eTalk,Elbert County Extension,1088,Rickersville,Elberton,30635,Elbert,Adults 18+,UGA,-82.8562102,34.1311355,NA,"1088 Rickersville,Elberton,GA,30635"
1,1/1/2018,Food eTalk,Elbert Primary School,1019,Falling Creek Circle,Elberton,30635,Elbert,Adults 18+,UGA,-82.8474712,34.0845264,NA,"1019 Falling Creek Circle,Elberton,GA,30635"
1,1/1/2018,Food eTalk,Elbert County Middle School,1108,Athens Tech Rd,Elberton,30635,Elbert,Adults 18+,UGA,-82.8937423,34.1061928,NA,"1108 Athens Tech Rd,Elberton,GA,30635"
1,1/1/2018,Food eTalk,Elbert County High School,600,Abernathy Circle,Elberton,30635,Elbert,Adults 18+,UGA,-82.8844103,34.108494,NA,"600 Abernathy Circle,Elberton,GA,30635"
1,1/1/2018,FTBU,Shangri La Park,69,Gilreath Rd NW,Cartersville,30121,Bartow,Adults 18+,UGA,-84.8136227,34.2270102,NA,"69 Gilreath Rd NW,Cartersville,GA,30121"
1,1/1/2018,"FT, Outreach",Sheltering Arms-International Village Center,3375,Chamblee Dunwoody Road,Chamblee,30341,DeKalb,Adults 18+,UGA,-84.2970174,33.8924793,NA,"3375 Chamblee Dunwoody Road,Chamblee,GA,30341"
1,1/1/2018,"FT, Outreach",Sheltering Arms-East Lake Center,350,East Lake Boulevard,Atlanta,30317,DeKalb,Adults 18+,UGA,-84.3136389,33.7418445,NA,"350 East Lake Boulevard,Atlanta,GA,30317"
1,1/1/2018,Outreach,Brookhaven Library,1242,"N. Druid Hills Rd., NE",Atlanta,30319,DeKalb,Adults 18+,UGA,-84.3397849,33.8571211,NA,"1242 N. Druid Hills Rd., NE,Atlanta,GA,30319"
1,1/1/2018,Outreach Event,Greater Bethany Baptist Church,786,Thurmond St,Atlanta,30314,Fulton,Adults 18+,UGA,-84.4131446,33.7602538,rooftop,"786 Thurmond St,Atlanta,GA,30314"
1,1/1/2018,Outreach Event,Greater Bethany Baptist Church,786,Thurmond St,Atlanta,30314,Fulton,Adults 18+,UGA,-84.4131446,33.7602538,rooftop,"786 Thurmond St,Atlanta,GA,30314"
1,1/1/2018,Outreach Event,Greater Bethany Baptist Church,786,Thurmond St,Atlanta,30314,Fulton,Adults 18+,UGA,-84.4131446,33.7602538,rooftop,"786 Thurmond St,Atlanta,GA,30314"
1,1/1/2018,Outreach Event,Greater Bethany Baptist Church,786,Thurmond St,Atlanta,30314,Fulton,Adults 18+,UGA,-84.4131446,33.7602538,rooftop,"786 Thurmond St,Atlanta,GA,30314"
1,1/1/2018,Outreach,East Point Mobile Homes,2848,2848 Veterans Street,East Point,30344,Fulton,Adults 18+,UGA,-84.4290728,33.6775536,NA,"2848 Veterans Street,East Point,GA,30344"
1,1/1/2018,Outreach,Hurd Homes,3022,3022 Randell St,East Point,30344,Fulton,Adults 18+,UGA,-84.433554,33.672778,NA,"3022 Randell St,East Point,GA,30344"
1,1/1/2018,Outreach,Longview Mobil Home Park,9,9 Longview Drive,Atlanta,30344,Fulton,Adults 18+,UGA,-84.4276534,33.67758,NA,"9 Longview Drive,Atlanta,GA,30344"
1,1/1/2018,Outreach,East Point Housing,3047,3047 John Freeman Way,East Point,30344,Fulton,Adults 18+,UGA,-84.4251656,33.6722249,NA,"3047 John Freeman Way,East Point,GA,30344"
1,1/1/2018,"FT, FTBU",Fannin Senior Life Services Center,440,W 1st Street,Blue Ridge,30513,Gilmer,Adults 18+,UGA,-84.325649,34.8671481,NA,"440 W 1st Street,Blue Ridge,GA,30513"
1,3/23/2018,"FTFM, Outreach",Boys and Girls Club of Athens,705,705 Fourth Street,Athens,30601,Clarke,Adults 18+,UGA,-83.3613243,33.9713019,NA,"705 Fourth Street,Athens,GA,30601"
1,3/23/2018,"FTFM, Outreach",Boy and Girls Club - HT Edwards,440-4,440-4 Dearing Extension,Athens,30606,Clarke,Adults 18+,UGA,-83.4003872,33.9503345,NA,"440-4 Dearing Extension,Athens,GA,30606"
1,3/23/2018,"FT, FTBU, FeT, FTFM, Outreach",Ebenezer Baptist West,205,205 N. Chase Street,Athens,30606,Clarke,Adults 18+,UGA,-83.3917503,33.9550317,NA,"205 N. Chase Street,Athens,GA,30606"
1,3/23/2018,"FT, FTBU, FeT, FTFM, Outreach",First AME Church,521,521 Hull Street,Athens,30601,Clarke,Adults 18+,UGA,-83.3792311,33.9607766,NA,"521 Hull Street,Athens,GA,30601"
1,3/23/2018,"FTFM, Outreach",Garden View Funeral Home,605,605 Olympic Drive,Athens,30601,Clarke,Adults 18+,UGA,-83.3447906,33.9672875,NA,"605 Olympic Drive,Athens,GA,30601"
1,3/23/2018,"FT, FTBU, FeT, FTFM, Outreach",Hill Chapel Baptist,1962,1692 W. Hancock Ave,Athens,30606,Clarke,Adults 18+,UGA,-83.398539,33.951542,NA,"1692 W. Hancock Ave,Athens,GA,30606"
1,3/23/2018,"FT, FTBU, FeT, FTFM, Outreach",Nelly B. Community Center,200,200 Zatella Lane,Athens,30606,Clarke,Adults 18+,UGA,-83.3524432,33.9582369,NA,"200 Zatella Lane,Athens,GA,30606"
1,3/23/2018,"FT, FTBU, FeT, FTFM, Outreach",New Covenant Worship Center,1425,1425 Newton Bridge Road,Athens,30607,Clarke,Adults 18+,UGA,-83.4060179,34.0174215,NA,"1425 Newton Bridge Road,Athens,GA,30607"
1,3/23/2018,"FT, FTBU, FeT, FTFM, Outreach",Athens Neighborhood Health Center,402,402 McKinley Drive,Athens,30601,Clarke,Adults 18+,UGA,-83.3547125,33.9585109,NA,"402 McKinley Drive,Athens,GA,30601"
1,4/16/2018,NA,Tranquility House,501,N Museum Drive,Cartersville,30120,Bartow,NA,UGA,-84.7962474,34.1683192,NA,"501 N Museum Drive,Cartersville,GA,30120"
1,4/17/2018,"FT, FTBU, Outreach",Gilmer Public Library,268,Calvin Jackson Drive,Ellijay,30540,Gilmer,NA,UGA,-84.5059467,34.6856833,NA,"268 Calvin Jackson Drive,Ellijay,GA,30540"
1,4/17/2018,FTFM,Society o St. Vincent De Paul,4871,Memorial Drive,Stone Mountain,30083,DeKalb,NA,UGA,-84.2314197,33.7875471,NA,"4871 Memorial Drive,Stone Mountain,GA,30083"
1,4/17/2018,FTFM,"K.D. Moore Community Development, Inc.",3999,Church Street,Clarkston,30021,DeKalb,NA,UGA,-84.2377173,33.8111912,NA,"3999 Church Street,Clarkston,GA,30021"
1,4/17/2018,FTFM,Fairfield Baptist Church,6133,Redan Road,Lithonia,30088,DeKalb,NA,UGA,-84.1470832,33.7464998,NA,"6133 Redan Road,Lithonia,GA,30088"
1,4/17/2018,FTFM,Berean Christian Church,2201,Young Road,Stone Mountain,30088,DeKalb,NA,UGA,-84.1716305,33.7385944,NA,"2201 Young Road,Stone Mountain,GA,30088"
1,4/17/2018,"FT, FTBU, Outreach",The Gardens Apartments,1870,Campbellton Rd,Atlanta,30311,Fulton,NA,UGA,-84.448482,33.707414,NA,"1870 Campbellton Rd,Atlanta,GA,30311"
1,4/17/2018,"FT, FTBU, Outreach",The Society of St. Vincent de Paul Georgia,1700,Lakewood Avenue SE,Atlanta,30315,Fulton,NA,UGA,-84.379716,33.7077459,NA,"1700 Lakewood Avenue SE,Atlanta,GA,30315"
1,4/17/2018,FTFM,Jonesboro Farmers Market,155,Lee Street,Jonesboro,30236,Clayton,NA,UGA,-84.3571354,33.525481,NA,"155 Lee Street,Jonesboro,GA,30236"
1,4/17/2018,"FT, FTBU, Outreach",Georgia Mountains Health - Ellijay,772,"Maddox Drive, #122",Ellijay,30540,Gilmer,NA,UGA,-84.4824042,34.6781783,NA,"772 Maddox Drive, #122,Ellijay,GA,30540"
1,5/7/2018,"FTFM, Outreach",Shrine of the Black Madonna,946,Ralph David Abernathy Boulevard,Atlanta,30310,Fulton,5,UGA,-84.4186956,33.7377906,NA,"946 Ralph David Abernathy Boulevard,Atlanta,GA,30310"
1,5/7/2018,"FTFM, Outreach",Berean Seventh Day Adventist Church,291,Hamilton E. Holmes Drive,Atlanta,30331,Fulton,5,UGA,-84.469533,33.763029,NA,"291 Hamilton E. Holmes Drive,Atlanta,GA,30331"
1,5/7/2018,"FTFM, Outreach",Mt. Vernon Baptist Church,815,Lynhurst Drive,Atlanta ,30311,Fulton,5,UGA,-84.4893097,33.7336857,NA,"815 Lynhurst Drive,Atlanta ,GA,30311"
1,5/7/2018,"FTFM, Outreach",Allen Temple AME Church,1625,Simpson Road,Atlanta,30314,Fulton,5,UGA,-84.4419238,33.7642328,NA,"1625 Simpson Road,Atlanta,GA,30314"
1,5/7/2018,"FTFM, Outreach",Quest Community Development ,878,Rock Street,Atlanta,30314,Fulton,5,UGA,-84.4162612,33.7619558,NA,"878 Rock Street,Atlanta,GA,30314"
1,5/7/2018,"FTFM, Outreach",Hillside International Truth Center,2450,Cascade Road,Atlanta,30311,Fulton,5,UGA,-84.4977427,33.7220991,NA,"2450 Cascade Road,Atlanta,GA,30311"
1,5/7/2018,"FTFM, Outreach",Palmetto Neighborhood Senior Center,510,Turner Avenue,Palmetto,30268,Fulton,13,UGA,-84.668622,33.524806,NA,"510 Turner Avenue,Palmetto,GA,30268"
1,5/7/2018,"FTFM, Outreach",St. Mark AME Church,3605,Campbellton Road,Atlanta,30331,Fulton,5,UGA,-84.5067339,33.6907688,NA,"3605 Campbellton Road,Atlanta,GA,30331"
1,5/7/2018,"FTFM, Outreach",Barge Road Senior Highrise,2440,Barge Road,Atlanta,30331,Fulton,5,UGA,-84.5057915,33.6884189,NA,"2440 Barge Road,Atlanta,GA,30331"
1,1/1/2018,FTFM,Stephenson High School,701,Stephenson Rd,Stone Mountain,30087,DeKalb,4,UGA,-84.1245479,33.7745962,NA,"701 Stephenson Rd,Stone Mountain,GA,30087"
1,1/1/2018,FTFM,Elizabeth Andrews High School,1701,Mountain Industrial Blvd,Stone Mountain,30083,DeKalb,4,UGA,-84.1946526,33.8325897,NA,"1701 Mountain Industrial Blvd,Stone Mountain,GA,30083"
1,1/1/2018,FTFM,Stone Mountain High School,4555,Central Dr,Stone Mountain,30083,DeKalb,4,UGA,-84.2020222,33.8106076,NA,"4555 Central Dr,Stone Mountain,GA,30083"
2,1/1/2018,NA,Meriwether WIC Clinic,51,Gay Connector Rd,Greenville,30222,Meriwether,Adults 18+,Open Hand Atlanta,-84.7120241,33.0417315,rooftop,"51 Gay Connector Rd,Greenville,GA,30222"
2,1/1/2018,NA,Rabun County Middle School,95,Wildcat Pride Way,Tiger,30576,Rabun,teens,Open Hand Atlanta,-83.421478,34.826389,bing,"95 Wildcat Pride Way,Tiger,GA,30576"
2,1/1/2018,NA,MLK Collaborative Community Resource Complex,101,101 Jackson St NE,Atlanta,30312,Fulton,kids -elementary age,Open Hand Atlanta,-84.37396,33.7567529,NA,"101 Jackson St NE,Atlanta,GA,30312"
2,1/1/2018,NA,Norcross Elementary School,150,Hunt St.,Norcross,30017,Gwinnett,Families,Open Hand Atlanta,-84.206626,33.9458672,rooftop,"150 Hunt St.,Norcross,GA,30017"
2,1/1/2018,NA,Appling County Headstart,389,E Allen St,Baxley,31513,Appling,Adults 18+,Open Hand Atlanta,-82.3440989,31.7866783,rooftop,"389 E Allen St,Baxley,GA,31513"
2,1/1/2018,NA,Concerted Services Baxley,389,389 E Allen St,Baxley,31513,Appling,"Individuals, Families",Open Hand Atlanta,-82.3440989,31.7866783,rooftop,"389 E Allen St,Baxley,GA,31513"
2,1/1/2018,NA,Berrien High School- Community Learning Center Afterschool Program,500,E Smith Ave.,Nashville,31639,Berrien,Teens,Open Hand Atlanta,-83.2452112,31.2192175,rooftop,"500 E Smith Ave.,Nashville,GA,31639"
2,1/1/2018,NA,Coastal GA Area CAA Claxton Head Start,720,720 N. Church St. Claxton GA 30417,Claxton,30417,Evans,"Kids, Adults",Open Hand Atlanta,-81.9127117,32.1713717,rooftop,"720 N. Church St. Claxton GA 30417,Claxton,GA,30417"
2,1/1/2018,NA,Troup County WIC Clinic,900,Dallis St,LaGrange,30240,Troup,Adults 18+,Open Hand Atlanta,-85.0473274,33.0270982,rooftop,"900 Dallis St,LaGrange,GA,30240"
2,1/1/2018,NA,Family Connections in Berrien Schools/Communities in Schools,1015,Exum Road,Nashville,31639,Berrien,"Families, Teens",Open Hand Atlanta,-83.2670428,31.1925752,range_interpolated,"1015 Exum Road,Nashville,GA,31639"
2,1/1/2018,NA,CHRIS Kids,1017,Fayetville Road SE,Atlanta,30316,Fulton,Aging teens and adults 18+,Open Hand Atlanta,-84.3219654,33.7266255,rooftop,"1017 Fayetville Road SE,Atlanta,GA,30316"
2,1/1/2018,NA,Emmaus House,1017,"1017 Hank Aaron Drive, SW ",Atlanta,30315-1705,Fulton,Teens 14-18,Open Hand Atlanta,-84.3882638,33.7268029,rooftop,"1017 Hank Aaron Drive, SW ,Atlanta,GA,30315-1705"
2,1/1/2018,NA,Rabun County Elementary School - Afterschool Program,1115,1115 Boggs Mountain Rd,Tiger,30576,Rabun,Kids,Open Hand Atlanta,-83.4069156,34.8256763,rooftop,"1115 Boggs Mountain Rd,Tiger,GA,30576"
2,1/1/2018,NA,Cobb Senior Center,1150,1150 Powder Springs,Marietta,30064,Cobb,NA,Open Hand Atlanta,-84.5741597,33.9262739,rooftop,"1150 Powder Springs,Marietta,GA,30064"
2,1/1/2018,NA,Families First,1150,Cole Dr. Sw,Lilburn,30047,Gwinett,Adults,Open Hand Atlanta,-84.1113953,33.8531355,rooftop,"1150 Cole Dr. Sw,Lilburn,GA,30047"
2,1/1/2018,NA,Vickery Mills Elementary School,1201,"1201 Alpharetta St, Roswell, GA 30075",Roswell,30075,Fulton,Adults,Open Hand Atlanta,-84.351048,34.030445,rooftop,"1201 Alpharetta St, Roswell, GA 30075,Roswell,GA,30075"
2,1/1/2018,NA,Magnolia House,1601,"Alice St, Ste A",Waycross,31502,Ware,"Families, Adults",Open Hand Atlanta,-82.3492475,31.2224494,rooftop,"1601 Alice St, Ste A,Waycross,GA,31502"
2,1/1/2018,NA,Urban Hope,1601,1601 Barnard St,Savannah,31401,Chatam,Kids,Open Hand Atlanta,-81.100969,32.061482,rooftop,"1601 Barnard St,Savannah,GA,31401"
2,1/1/2018,NA,Mental Fitness,1820,"1820 Henry Thomas Dr SE, Atlanta, GA 30315",Atlanta,30315,Fulton,kids,Open Hand Atlanta,-84.3557853,33.7039214,range_interpolated,"1820 Henry Thomas Dr SE, Atlanta, GA 30315,Atlanta,GA,30315"
2,1/1/2018,NA,Boulevard Coop,386,Pine St NE,Atlanta,30308,Fulton,Adults 18+,Open Hand Atlanta,-84.3745891,33.7682376,rooftop,"386 Pine St NE,Atlanta,GA,30308"
2,1/1/2018,NA,Well Spring Living Carver,1600,Pryor Rd SW,Atlanta,30315,Fulton,Adults 18+,Open Hand Atlanta,-84.3929699,33.710533,rooftop,"1600 Pryor Rd SW,Atlanta,GA,30315"
2,1/1/2018,NA,Well Spring Living Fowler,5600,W Jones Bridge Rd,Norcross,30092,Gwinett,Adults 18+,Open Hand Atlanta,-84.227579,33.9788817,rooftop,"5600 W Jones Bridge Rd,Norcross,GA,30092"
2,1/1/2018,NA,FANN Program at Walton Crossing,1820,"Mulkey Rd SW, Austell, GA 30106",Austell,30106,Cobb,"Families, Adults",Open Hand Atlanta,-84.6076433,33.8609984,NA,"1820 Mulkey Rd SW, Austell, GA 30106,Austell,GA,30106"
2,1/1/2018,NA,Carroll WIC Clinic,1004,Newman Road,Carrollton,30116,Carroll,Adults 18+,Open Hand Atlanta,-85.0458902,33.5673549,rooftop,"1004 Newman Road,Carrollton,GA,30116"
2,1/1/2018,NA,Lamar County WIC Clinic,118,Academy Drive,Barnesville,30204,Lamar,Adults 18+,Open Hand Atlanta,-84.1472759,33.0349578,rooftop,"118 Academy Drive,Barnesville,GA,30204"
2,1/1/2018,NA,Spalding WIC Clinic,1007,Memorial Dr,Griffin,30223,Spalding,Adults 18+,Open Hand Atlanta,-84.2473133,33.2410096,rooftop,"1007 Memorial Dr,Griffin,GA,30223"
2,1/1/2018,NA,Upson WIC Clinic,314,E Lee St,Thomaston,30286,Upson,Adults 18+,Open Hand Atlanta,-84.3226173,32.8856616,range_interpolated,"314 E Lee St,Thomaston,GA,30286"
2,1/1/2018,NA,Villa Rica WIC Clinic,201,Cleghorn Street,Villa Rica,30180,Carroll,Adults 18+,Open Hand Atlanta,-84.9098986,33.7347059,rooftop,"201 Cleghorn Street,Villa Rica,GA,30180"
2,1/1/2018,NA,Mercy Care Clinic,3367,Buford Highway,Norcross,30319,Gwinett,Adults 18+,Open Hand Atlanta,-84.2672356,33.9085875,range_interpolated,"3367 Buford Highway,Norcross,GA,30319"
2,1/1/2018,NA,Norcross Mobile Home Village,4498,Buford Highway,Norcross,30319,Gwinett,Adults 18+,Open Hand Atlanta,-84.1757306,33.9670727,rooftop,"4498 Buford Highway,Norcross,GA,30319"
2,1/1/2018,NA,Intown Collaborative Ministries,1026,Ponce de Leon,Atlanta,30306,Fulton,Adults 18+,Open Hand Atlanta,-84.3546333,33.7741911,rooftop,"1026 Ponce de Leon,Atlanta,GA,30306"
2,1/1/2018,NA,Wayfield Food,3050,MLK Blvd,Atlanta,30311,Fulton,Adults 18+,Open Hand Atlanta,-84.4864318,33.7517038,rooftop,"3050 MLK Blvd,Atlanta,GA,30311"
2,1/1/2018,NA,East Point Farmer Market,2757,East Point St,East Point,30344,Fulton,Adults 18+,Open Hand Atlanta,-84.4406926,33.6803551,rooftop,"2757 East Point St,East Point,GA,30344"
2,1/1/2018,NA,Urban Recipe,645,Grant Street,Atlanta,30312,Fulton,Adults 18+,Open Hand Atlanta,-84.3767213,33.7369569,rooftop,"645 Grant Street,Atlanta,GA,30312"
2,1/1/2018,NA,Quest Community Development,879,Rock Street,Atlanta,30314,Fulton,Adults 18+,Open Hand Atlanta,-84.416243,33.762514,rooftop,"879 Rock Street,Atlanta,GA,30314"
2,1/1/2018,NA,Raising Expectations,225,James P Brawley Dr NW,Atlanta,30314,Fulton,Teens 14-18,Open Hand Atlanta,-84.4123,33.7610162,rooftop,"225 James P Brawley Dr NW,Atlanta,GA,30314"
2,1/1/2018,NA,Pearson Farmer Market,89,89 Main St S,Pearson,31642,Atkinson,Adults 18+,Open Hand Atlanta,-82.8527564,31.2970464,range_interpolated,"89 Main St S,Pearson,GA,31642"
2,1/1/2018,NA,4H,636,636 E Austin Ave,Pearson,31642,Atkinson,kids 5-17,Open Hand Atlanta,-82.8425087,31.2926525,rooftop,"636 E Austin Ave,Pearson,GA,31642"
2,1/1/2018,NA,WIC Farmer Market,2747,2747 4th St,Brunswick,31520,Glynn,Adults 18+,Open Hand Atlanta,-81.4797309,31.1817103,rooftop,"2747 4th St,Brunswick,GA,31520"
2,1/1/2018,NA,WIC Farmer Market,1183,1183 Bultman Ave,Hinesville,31310,Liberty,Adults 18+,Open Hand Atlanta,-81.5939692,31.8701853,rooftop,"1183 Bultman Ave,Hinesville,GA,31310"
2,1/1/2018,NA,Senior Citizens Inc.,3025,3025 Bull St,Savannah,31405,Chatam,Adults 18+,Open Hand Atlanta,-81.1040784,32.0496152,rooftop,"3025 Bull St,Savannah,GA,31405"
2,1/1/2018,NA,Savannah's Children Museum,655,Louisville Rd,Savannah,31401,Chatam,kids 5-12,Open Hand Atlanta,-81.1015065,32.0754846,rooftop,"655 Louisville Rd,Savannah,GA,31401"
2,1/1/2018,NA,Waycross Housing Authority,1460,1460 N Augusta Ave,Waycross,31503,Wayne,kids 5-12,Open Hand Atlanta,-82.3845072,31.2339298,rooftop,"1460 N Augusta Ave,Waycross,GA,31503"
2,1/1/2018,NA,Veterans Empowerment Organization,373,373 West Lake Ave. NW,Atlanta,30318,Fulton,"Individuals, Families",Open Hand Atlanta,-84.4409887,33.7656298,range_interpolated,"373 West Lake Ave. NW,Atlanta,GA,30318"
2,1/1/2018,NA,Tattnall County Library,129,129 Tattnall St ,Reidville,30453,Tattnall,"Individuals, Families",Open Hand Atlanta,-82.1207784,32.0829342,rooftop,"129 Tattnall St ,Reidville,GA,30453"
2,1/1/2018,NA,Children’s Specialist Hospital- Memorial Health,4700,4700 Waters Avenue,Savannah,31404,Chatam,families,Open Hand Atlanta,-81.0894845,32.029986,rooftop,"4700 Waters Avenue,Savannah,GA,31404"
2,1/1/2018,NA,Community Assistance Center,1130,1130 Hightower Trail,Atlanta,30350 ,Fulton,NA,Open Hand Atlanta,-84.3501082,33.988329,rooftop,"1130 Hightower Trail,Atlanta,GA,30350 "
2,1/1/2018,NA,Caring Works,275,275 Washington St,Atlanta,30303,Fulton,Adults 18+,Open Hand Atlanta,-84.3911017,33.7472846,NA,"275 Washington St,Atlanta,GA,30303"
2,1/1/2018,NA,"Concerted Services Senior Center, Candler County",430,430 North Rountree St,Metter,30439,Candler,"Adults 18+, Families",Open Hand Atlanta,-82.0610067,32.4023391,range_interpolated,"430 North Rountree St,Metter,GA,30439"
2,1/1/2018,NA,"Concerted Services Senior Center, Tattnall County ",144,144 West Brazell St,Reidsville,30453,Tattnall,"Adults 18+, Families",Open Hand Atlanta,-82.1198972,32.0853314,range_interpolated,"144 West Brazell St,Reidsville,GA,30453"
2,1/1/2018,NA,Operation Peace,542,542 Boulevard NE,Atlanta,30308,Fulton,Teens 14-18,Open Hand Atlanta,-84.3722148,33.7690946,NA,"542 Boulevard NE,Atlanta,GA,30308"
2,1/1/2018,NA,Safe Harbor Children's Center,2215,2215 Gloucester Street,Brunswick,31520,Glynn,Teens 14-18,Open Hand Atlanta,-81.4828841,31.1527285,NA,"2215 Gloucester Street,Brunswick,GA,31520"
2,1/1/2018,NA,Allegre Point with Mercy Housing,3391,3391 Flat Shoals Road,Decatur,30032,DeKalb,Seniors,Open Hand Atlanta,-84.2754888,33.7044496,NA,"3391 Flat Shoals Road,Decatur,GA,30032"
2,1/1/2018,NA,Pierce County High School - Special Education Program,4850,"4850 County Farm Rd,",Blackshear,31516,Pierce,Teens 14-18,Open Hand Atlanta,-82.2163183,31.344334,rooftop,"4850 County Farm Rd,,Blackshear,GA,31516"
2,1/1/2018,NA,Making a Way House,377,Weschester Boulevard,Atlanta,30314,Fulton,Adults,Open Hand Atlanta,-84.452619,33.76552,rooftop,"377 Weschester Boulevard,Atlanta,GA,30314"
2,1/1/2018,NA,Family Support Circle,3893,Kensington Rd,Decatur,30032,DeKalb,Teens 14-18,Open Hand Atlanta,-84.2368359,33.7661596,rooftop,"3893 Kensington Rd,Decatur,GA,30032"
2,1/1/2018,NA,Decatur Housing Authority,750,Commerce Drive Suite 110,Decatur,30030,DeKalb,Adults,Open Hand Atlanta,-84.2937261,33.7782451,rooftop,"750 Commerce Drive Suite 110,Decatur,GA,30030"
2,1/1/2018,NA,CETPA  http://www.cetpa.org,4650,"4650 Jimmy Carter Blvd., Suite 113",Norcross,30093,Gwinett,kids and teens,Open Hand Atlanta,-84.1937515,33.8848653,rooftop,"4650 Jimmy Carter Blvd., Suite 113,Norcross,GA,30093"
2,1/1/2018,NA,Atlanta Neighborhood Development Partnership at DeLowe Village Housing Project,2360,Delowe Dr,East Point,30344,Fulton,families,Open Hand Atlanta,-84.456901,33.6906146,rooftop,"2360 Delowe Dr,East Point,GA,30344"
2,1/1/2018,NA,Center for Working Families,477,Windsor St SW,Atlanta,30312,Fulton,families,Open Hand Atlanta,-84.399713,33.7413728,rooftop,"477 Windsor St SW,Atlanta,GA,30312"
2,1/1/2018,NA,Pebblebrook High School- Family Program,991,Old Alabama Road,Mableton,30126,Cobb,teens 14-18 and Adults,Open Hand Atlanta,-84.5818547,33.8068817,rooftop,"991 Old Alabama Road,Mableton,GA,30126"
2,1/1/2018,NA,Enough to Share Food Pantry- Atlanta Masjid,560,Fayetteville Rd,Atlanta,30315,Fulton,Adults,Open Hand Atlanta,-84.3107345,33.7384493,rooftop,"560 Fayetteville Rd,Atlanta,GA,30315"
2,1/1/2018,NA,Unison Behavioral Health,310,Williams Street,Waycross,31501,Ware,Adults,Open Hand Atlanta,-82.3566433,31.2096824,rooftop,"310 Williams Street,Waycross,GA,31501"
2,1/1/2018,NA,Clay Elementary School,730,Boggs Rd,Mableton,30126,Cobb,Kids,Open Hand Atlanta,-84.5756065,33.8047899,rooftop,"730 Boggs Rd,Mableton,GA,30126"
2,1/1/2018,NA,Pearson Senior Center,75,Relihan Street,Pearson,31642,Atkinson,Adults,Open Hand Atlanta,-82.8451218,31.2920678,range_interpolated,"75 Relihan Street,Pearson,GA,31642"
2,1/1/2018,NA,Gasden Elementary School,919,May St,Savannah,31415,Chatam,Kids,Open Hand Atlanta,-81.1059573,32.0682071,rooftop,"919 May St,Savannah,GA,31415"
2,1/1/2018,NA,Prevent Child Abuse Habersham,122,Laurel Drive,Clarkesville,30523,Habersham,Families,Open Hand Atlanta,-83.5212388,34.6096459,rooftop,"122 Laurel Drive,Clarkesville,GA,30523"
2,1/1/2018,NA,Latin American Association- Family Services Program,2750,2750 Buford Hwy NE,Atlanta,30324,DeKalb/Fulton,Families,Open Hand Atlanta,-84.346071,33.8290248,NA,"2750 Buford Hwy NE,Atlanta,GA,30324"
2,1/1/2018,NA,College Park Housing Authority,2000,Princeton Ave,College Park,30337,Fulton,Adults,Open Hand Atlanta,-84.454278,33.6547391,range_interpolated,"2000 Princeton Ave,College Park,GA,30337"
2,1/1/2018,NA,Tift Tower,311,311 East Second Street,Tifton,31794,Tift,NA,Open Hand Atlanta,-83.5073507,31.454191,range_interpolated,"311 East Second Street,Tifton,GA,31794"
2,1/1/2018,NA,Butler Elementary School,1909,1909 Cynthia St,Savannah,31415,Chatam,Kids,Open Hand Atlanta,-81.1258744,32.0638979,rooftop,"1909 Cynthia St,Savannah,GA,31415"
2,1/1/2018,NA,"R.E.A.C.H. Community Development Center, Inc",6212,Memorial Drive,Stone Mountain,30083,DeKalb,"Kids, Adults",Open Hand Atlanta,-84.1875246,33.8080739,rooftop,"6212 Memorial Drive,Stone Mountain,GA,30083"
2,1/1/2018,NA,Rabun County Primary School,801,East Boggs Mountain Road,Tiger,30576,Rabun,kids,Open Hand Atlanta,-83.411176,34.82339,bing,"801 East Boggs Mountain Road,Tiger,GA,30576"
2,1/1/2018,NA,Rabun County High School,230,Wildcat Hill,Tiger,30576,Rabun,teens,Open Hand Atlanta,-83.421982,34.8271301,rooftop,"230 Wildcat Hill,Tiger,GA,30576"
2,1/1/2018,NA,Covenant House Georgia,1559,Johnson Rd. NW,Atlanta,30318,Fulton,teens,Open Hand Atlanta,-84.4379877,33.7882303,rooftop,"1559 Johnson Rd. NW,Atlanta,GA,30318"
2,1/1/2018,NA,Rabun County Senior Center,2832,Old 441 S,Tiger,30578,Rabun,Adults,Open Hand Atlanta,-83.4280288,34.8581045,range_interpolated,"2832 Old 441 S,Tiger,GA,30578"
2,1/1/2018,NA,Brooks Lane,1203,Old 441 S,Clayton,30525,Clayton,Adults,Open Hand Atlanta,-83.4182185,34.8634944,range_interpolated,"1203 Old 441 S,Clayton,GA,30525"
2,1/1/2018,NA,DeKalb County WIC,395,Glendale Road,Scottdale,30079,DeKalb,Adults 18+,Open Hand Atlanta,-84.253695,33.7872418,range_interpolated,"395 Glendale Road,Scottdale,GA,30079"
2,1/1/2018,NA,Coastal WIC,1395,Eisenhower Dr.,Savannah,31406,Chatam,Adults 18+,Open Hand Atlanta,-81.0918449,32.0031196,rooftop,"1395 Eisenhower Dr.,Savannah,GA,31406"
2,1/1/2018,ACFB Food Pantry Partner- Adults,Covington UMC Food Pantry,1113,Conyers St SW,Covington,30014,Newton,Adults,Open Hand Atlanta,-83.8598787,33.5940379,rooftop,"1113 Conyers St SW,Covington,GA,30014"
2,1/1/2018,Cooking Matters for Kids,Haven Elementary,5111,Dillon Ave.,Savannah,31405,Chatham,Kids,Open Hand Atlanta,-81.124103,32.034324,rooftop,"5111 Dillon Ave.,Savannah,GA,31405"
2,1/1/2018,Cooking Matters for Kids,E. Broad Elementary,404,E. Broad St.,Savannah,31401,Chatham,Kids,Open Hand Atlanta,-81.0868775,32.0713712,range_interpolated,"404 E. Broad St.,Savannah,GA,31401"
2,1/1/2018,Cooking Matters for Teens,Mercer Middle School,201,201 Rommel Ave.,Savannah,31408,Chatham,Teens,Open Hand Atlanta,-81.1613518,32.1121146,range_interpolated,"201 Rommel Ave.,Savannah,GA,31408"
2,1/1/2018,Cooking Matters for Teens,Performance Initiatives,2021,Rommel Ave,Savannah,31404,Chatham,Teens,Open Hand Atlanta,-81.06289,32.04985,bing,"2021 Rommel Ave,Savannah,GA,31404"
2,1/1/2018,Cooking Matters for Adults,AHEPA One Apts.,2025,Ludovie Lane,Decatur,30033,DeKalb,Adults,Open Hand Atlanta,-84.261877,33.843083,rooftop,"2025 Ludovie Lane,Decatur,GA,30033"
2,1/1/2018,Cooking Matters for Adults,Columbia Senior Residences at Edgewood,1281,Caroline Street NE,Atlanta,30307,Fulton,Adults,Open Hand Atlanta,-84.3454907,33.7573816,rooftop,"1281 Caroline Street NE,Atlanta,GA,30307"
2,1/1/2018,WIC Clinic,Hall County Health Department- WIC,1290,Athens Street,Gainesville,30507,Hall,Adults,Open Hand Atlanta,-83.8028072,34.2873956,rooftop,"1290 Athens Street,Gainesville,GA,30507"
2,1/1/2018,WIC Clinic,Rome WIC District 1-1,1309,Redmond Rd.,Rome,30165,Flyod,Adults,Open Hand Atlanta,-85.2034683,34.2828632,rooftop,"1309 Redmond Rd.,Rome,GA,30165"
2,1/1/2018,WIC Clinic,Oglethorpe County Health Department,305,Union Point Rd.,Lexington,30648,Oglethorpe,Adults,Open Hand Atlanta,-83.1195083,33.8703091,rooftop,"305 Union Point Rd.,Lexington,GA,30648"
2,1/1/2018,WIC Clinic,Lawrenceville Health Center- WIC,455,455 Grayson Hwy Suite 300,Lawrenceville,30046,Gwinnett,Adults,Open Hand Atlanta,-83.9816435,33.9395266,rooftop,"455 Grayson Hwy Suite 300,Lawrenceville,GA,30046"
2,1/1/2018,Cooking Matters for Adults,Columbia Senior Residences at High Point,220,Bowen Circle SW,Atlanta,30315,Fulton,Adults,Open Hand Atlanta,-84.395711,33.7149487,rooftop,"220 Bowen Circle SW,Atlanta,GA,30315"
2,1/1/2018,Cooking Matters for Teens,Osborne High School,2451,Favor Road SW,Marietta,30060,Cobb,Teens,Open Hand Atlanta,-84.5657108,33.8914744,rooftop,"2451 Favor Road SW,Marietta,GA,30060"
2,1/1/2018,Cooking Matters for Adults,Tretletree Village Apartments,956,Confederate Court SE,Atlanta,30312,Fulton,Adults,Open Hand Atlanta,-84.3621724,33.7282301,range_interpolated,"956 Confederate Court SE,Atlanta,GA,30312"
2,1/1/2018,"Cooking Matters for Adults, ACFB Partnership",Community Friendship,85,Renaissance Pkwy,Atlanta,30308,Fulton,Adults,Open Hand Atlanta,-84.3845982,33.768401,rooftop,"85 Renaissance Pkwy,Atlanta,GA,30308"
2,1/1/2018,"Cooking Matters for Adults, Teens and Kids",Woodward Elementary,3034,Curtis Drive,Atlanta,30319,DeKalb,"Adults, Teens, Kids",Open Hand Atlanta,-84.3371441,33.8413395,rooftop,"3034 Curtis Drive,Atlanta,GA,30319"
2,1/1/2018,"Cooking Matters for Adults, Teens and Kids",Baggett Elementary,2136,Old Norcross Rd.,Lawrenceville,30044,Gwinnett,"Adults, Teens, Kids",Open Hand Atlanta,-84.067507,33.950573,rooftop,"2136 Old Norcross Rd.,Lawrenceville,GA,30044"
2,1/1/2018,"Cooking Matters for Adults, Teens and Kids",Beaver Ridge Elementary,1978,Beaver Ruin. Rd.,Norcross,30071,Gwinnett,"Adults, Teens, Kids",Open Hand Atlanta,-84.1730622,33.9344276,rooftop,"1978 Beaver Ruin. Rd.,Norcross,GA,30071"
2,1/1/2018,"Cooking Matters for Adults, Teens and Kids",Esther Jackson Elementary,1400,Martin Rd.,Roswell,30076,Fulton,"Adults, Teens, Kids",Open Hand Atlanta,-84.3185341,34.0113129,rooftop,"1400 Martin Rd.,Roswell,GA,30076"
2,1/1/2018,Communities In Schools of Marietta/Cobb County,South Cobb High School,1920,Clay Rd. SW,Austell,30106,Cobb,Teens,Open Hand Atlanta,-84.6104675,33.833353,rooftop,"1920 Clay Rd. SW,Austell,GA,30106"
2,1/1/2018,"Section 8 Housing,  100% of residents fall within HUDs definition of low income, CFSP site",Asbury Harris Towers,3033,Continental Colony Parkway,Atlanta,30331,Fulton,"Adults, Families",Open Hand Atlanta,-84.4948495,33.6826952,rooftop,"3033 Continental Colony Parkway,Atlanta,GA,30331"
2,1/1/2018,"CFSP Site, Senior Living Community , Section 8 Housing",Calvin Courts,479,E. Paces Ferry Road N.E.,Atlanta,30305,Fulton,Adults,Open Hand Atlanta,-84.371904,33.8378786,rooftop,"479 E. Paces Ferry Road N.E.,Atlanta,GA,30305"
2,1/1/2018,NA,Blackshear- Columbia Residential,14,Meldon Avenue SW,Atlanta,30315,Fulton,"Adults, Families",Open Hand Atlanta,-84.3825475,33.7112521,rooftop,"14 Meldon Avenue SW,Atlanta,GA,30315"
2,1/1/2018,NA,Davis Direction Foundation,32,N Fairground Street NE,Marietta,30060,Cobb,NA,Open Hand Atlanta,-84.5353855,33.9514757,rooftop,"32 N Fairground Street NE,Marietta,GA,30060"
2,1/1/2018,NA,Hollis innovation academy,225,James P Brawley Dr NW,Atlanta,30314,Fulton,Kids,Open Hand Atlanta,-84.4123,33.7610162,rooftop,"225 James P Brawley Dr NW,Atlanta,GA,30314"
2,1/1/2018,NA,Williams Court Apartments,1900,Lincoln Street,Savannah,31401,Chatam,Adults,Open Hand Atlanta,-81.095749,32.0572684,rooftop,"1900 Lincoln Street,Savannah,GA,31401"
2,1/1/2018,NA,Sweetwater Mission: Food Pantry,6289,Veterans Memorial Hwy #12a,Austell,30168,Cobb,Adults,Open Hand Atlanta,-84.7378289,33.7556294,range_interpolated,"6289 Veterans Memorial Hwy #12a,Austell,GA,30168"
2,1/1/2018,Cooking Matters for Teens and Kids,"Because We Care Enterprise, After School Program",4893,Memorial Dr.,Stone Mountain,30083,DeKalb,Teens,Open Hand Atlanta,-84.2309458,33.7885037,rooftop,"4893 Memorial Dr.,Stone Mountain,GA,30083"
2,1/1/2018,"Cooking Matters for Teens, ACFB Partnership","COACHES-RYSE Program, Families First",80,Joseph E. Lowery Blvd. NW,Atlanta,30314,Fulton,Teens,Open Hand Atlanta,-84.4178949,33.7570374,rooftop,"80 Joseph E. Lowery Blvd. NW,Atlanta,GA,30314"
2,1/1/2018,NA,Your Time Fitness,745,N. Main St.,Clayton,30525,Rabun,Adults,Open Hand Atlanta,-83.396938,34.888237,rooftop,"745 N. Main St.,Clayton,GA,30525"
2,1/1/2018,NA,Hart County High School,59,5th St.,Hartwell,30643,Hart,Teens and Adults,Open Hand Atlanta,-82.9232041,34.3479391,rooftop,"5th St.,Hartwell,GA,30643"
2,1/1/2018,NA,Hart County Middle School,176,Powell Rd.,Hartwell,30643,Hart,Teens and Adults,Open Hand Atlanta,-82.9210177,34.3500701,rooftop,"176 Powell Rd.,Hartwell,GA,30643"
2,1/1/2018,NA,Hartwell Elementary School,147,College Ave.,Hartwell,30643,Hart,Kids and Adults,Open Hand Atlanta,-82.928048,34.3496599,rooftop,"147 College Ave.,Hartwell,GA,30643"
2,1/1/2018,NA,North Hart Elementary School,124,Ankerich Rd.,Bowersville,30516,Hart,Kids and Adults,Open Hand Atlanta,-83.0025157,34.3745757,rooftop,"124 Ankerich Rd.,Bowersville,GA,30516"
2,1/1/2018,NA,South Hart Elementary School,121,E&M Dairy Rd.,Hartwell,30643,Hart,Kids and Adults,Open Hand Atlanta,-82.950825,34.291825,bing,"121 E&M Dairy Rd.,Hartwell,GA,30643"
2,1/1/2018,NA,Oakcliff Elementary School,3150,Willow Oak Way,Atlanta,30340,DeKalb,Adults and  Kids,Open Hand Atlanta,-84.258393,33.9024927,rooftop,"3150 Willow Oak Way,Atlanta,GA,30340"
2,1/1/2018,NA,Phoenix High School,501,W. Pike St.,Lawrenceville,30046,Gwinnett,Adults and Teens,Open Hand Atlanta,-84.0047717,33.9634751,rooftop,"501 W. Pike St.,Lawrenceville,GA,30046"
2,1/1/2018,NA,Clinch County Senior Citizen Center,101,S. College St. #C,Homerville,31634,Clinch,Adults,Open Hand Atlanta,-82.750177,31.034281,rooftop,"101 S. College St. #C,Homerville,GA,31634"
2,1/1/2018,NA,Positive Direction,524,Oak Street,Dawson,39842,Terrell,"Adults, Teens, Kids",Open Hand Atlanta,-84.4419588,31.7665845,rooftop,"524 Oak Street,Dawson,GA,39842"
2,1/1/2018,NA,South Jackson Elementary,1630,New Kings Bridge Rd.,Athens,30607,Clarke,Adults and Kids,Open Hand Atlanta,-83.4761304,34.0694392,range_interpolated,"1630 New Kings Bridge Rd.,Athens,GA,30607"
2,1/1/2018,NA,Liberty Early Head Start,200,Brantley Drive,Hinesville,31313,Liberty,Adults,Open Hand Atlanta,-81.5987748,31.8230901,rooftop,"200 Brantley Drive,Hinesville,GA,31313"
2,1/1/2018,NA,J. L. Newbern Middle School,2015,E. Park Avenue,Valdosta,31602,Lowndes,Teens,Open Hand Atlanta,-83.2506916,30.8653597,rooftop,"2015 E. Park Avenue,Valdosta,GA,31602"
2,1/1/2018,NA,Pines Family Campus,305,Smith Street,Valdosta,31601,Lowndes,Adults,Open Hand Atlanta,-83.2709,30.811,rooftop,"305 Smith Street,Valdosta,GA,31601"
2,1/1/2018,NA,Maya's Residential Home,920,4th Street,Cairo,39828,Grady,Adults,Open Hand Atlanta,-84.2119787,30.8861464,range_interpolated,"4th Street,Cairo,GA,39828"
2,1/1/2018,NA,High Tower Manor - Atlanta Housing Authority,2610,Martin Luther King Jr. Dr SW,Atlanta,30311,Fulton,Adults,Open Hand Atlanta,-84.4728068,33.7516225,rooftop,"2610 Martin Luther King Jr. Dr SW,Atlanta,GA,30311"
2,1/1/2018,NA,Harvey's Supermarket,775,Hwy 12 W,Haira,31632,Lowndes,Adults,Open Hand Atlanta,-83.1787939,30.9921051,range_interpolated,"775 Hwy 12 W,Haira,GA,31632"
2,1/1/2018,NA,Winn-Dixie Supermarket,4036,Bemiss Rd.,Valdosta,31601,Lowndes,Adults,Open Hand Atlanta,-83.2617048,30.9102084,rooftop,"4036 Bemiss Rd.,Valdosta,GA,31601"
2,1/1/2018,NA,Winn-Dixie Supermarket,1105,Madison Highway,Valdosta,31601,Lowndes,Adults,Open Hand Atlanta,-83.2735216,30.8175126,rooftop,"1105 Madison Highway,Valdosta,GA,31601"
2,1/1/2018,NA,Hahira Head Start,403,Main St,Hahira,3162,Lowndes,Adults,Open Hand Atlanta,-83.3656484,30.9919295,rooftop,"403 Main St,Hahira,GA,3162"
2,1/1/2018,Cooking Matters for Teens,Park Place Outreach,514,East Henry Street,Savannah,31405,Chatham,Teens,Open Hand Atlanta,-81.0918386,32.0619037,rooftop,"514 East Henry Street,Savannah,GA,31405"
2,1/1/2018,Cooking Matters for Adults,Bulloch County Concerted Services Senior Center,515,Denmark St.,Statesboro,30458,Statesboro,Adults,Open Hand Atlanta,-81.7990415,32.4489779,rooftop,"515 Denmark St.,Statesboro,GA,30458"
2,1/1/2018,Cooking Matters for Adults,Norman Berry Village,2840,Norman Berry Dr.,East Point,303344,Fulton,Adults,Open Hand Atlanta,-84.4253993,33.6742673,NA,"2840 Norman Berry Dr.,East Point,GA,303344"
2,1/1/2018,"Cooking Matters for Adults, Teens and Kids",Decatur Cooperative Minitries,115,Church St.,Decatur,30030,DeKalb,"Adults, Teens, Kids",Open Hand Atlanta,-84.2946328,33.7711927,NA,"115 Church St.,Decatur,GA,30030"
2,1/1/2018,Cooking Matters for Adults,Ashford Parkside Apartments-Housing Authority of DeKalb County,3522,Blair Circle NE,Atlanta,30310,Fulton,Adults,Open Hand Atlanta,-84.3239595,33.894073,NA,"3522 Blair Circle NE,Atlanta,GA,30310"
2,1/1/2018,Cooking Matters for Adults,Ashford Landing Apartments- Housing Authority of DeKalb County,3521,Blair Circle NE,Atlanta,30310,Fulton,Adults,Open Hand Atlanta,-84.3232653,33.8941654,NA,"3521 Blair Circle NE,Atlanta,GA,30310"
2,1/1/2018,"Cooking Matters for Kids, Teens",Georgia Sherriff's Boy Ranch,5671,Boys Ranch Rd.,Hahira,31632,Lowndes,"Adults,Teens, Kids",Open Hand Atlanta,-83.2890261,31.0195565,NA,"5671 Boys Ranch Rd.,Hahira,GA,31632"
2,1/1/2018,"Cooking Matters for Kids, Teens, and Adults",Corners Outreach,2,"Sun Court, Suite 220",Peachtree Corners,30092,Gwinnett,"Adults, Teens, Kids",Open Hand Atlanta,-84.2269739,33.9682463,NA,"2 Sun Court, Suite 220,Peachtree Corners,GA,30092"
2,1/1/2018,"Cooking Matters for Kids, Teens, and Adults",Conyers Housing Authority,1214,Summer Circle,Conyers,30012,Rockdale,"Adults, Teens, Kids",Open Hand Atlanta,-84.0266766,33.6758618,NA,"1214 Summer Circle,Conyers,GA,30012"
2,1/1/2018,"Cooking Matters for Kids, Teens and Adults",East Lake Foundation,460,East Lake Blvd SE,Atlanta,30317,DeKalb,"Adults, Teens, Kids",Open Hand Atlanta,-84.313076,33.7407374,NA,"460 East Lake Blvd SE,Atlanta,GA,30317"
2,1/1/2018,Cooking Matters for Adults,East Lake YMCA- Active Senior Group,275,East LakeBlvd SE,Atlanta,30317,DeKalb,Adults,Open Hand Atlanta,-84.3148337,33.7460591,NA,"275 East LakeBlvd SE,Atlanta,GA,30317"
2,1/1/2018,"Cooking Matters for Teens, Kids",Summerhill Community Ministries,521,Kelly Street,Atlanta,30312,Fulton,Teens and Kids,Open Hand Atlanta,-84.3807762,33.7404407,NA,"521 Kelly Street,Atlanta,GA,30312"
2,1/1/2018,Cooking Matters for Adults,Walton Reserve Apartments,1500,Walton Reserve Blvd.,Austell,30168,Cobb,Adults,Open Hand Atlanta,-84.6013339,33.7812354,NA,"1500 Walton Reserve Blvd.,Austell,GA,30168"
2,1/1/2018,Cooking Matters for Adults,Walton Ridenour Apartments,1425,Ridenour Blvd.,Kennesaw,30152,Cobb,Adults,Open Hand Atlanta,-84.5914124,33.993928,NA,"1425 Ridenour Blvd.,Kennesaw,GA,30152"
2,1/1/2018,"Cooking Matters for Adults, Teens and Kids, and Cooking Matters at the Store",NE GA Food Bank,861,Newton Bridge Rd.,Athens,303607,Clarke,"Teens, Kids, and Adults",Open Hand Atlanta,-83.4019521,34.0024593,NA,"861 Newton Bridge Rd.,Athens,GA,303607"
2,1/1/2018,"Cooking Matters for Adults, Teens and Kids,","Yells, Inc.: Community Action Café",779,Franklin Gateway SE,Marietta,30067,Cobb,"Teens, Kids, and Adults",Open Hand Atlanta,-84.5008952,33.9337264,NA,"779 Franklin Gateway SE,Marietta,GA,30067"
2,1/1/2018,"Cooking Matters for Adults, Teens and Kids,",Corners Outreach- Dunwoody,6890,Peachtree Industrial Blvd.,Dunwoody,30360,DeKalb,"Teens, Kids, and Adults",Open Hand Atlanta,-84.2664389,33.9308867,NA,"6890 Peachtree Industrial Blvd.,Dunwoody,GA,30360"
2,1/1/2018,Cooking Matters for Kids,Lockheed Elementary School,1205,Merritt Rd.,Marietta,30062,Cobb,Kids,Open Hand Atlanta,-84.5175649,33.9720127,NA,"1205 Merritt Rd.,Marietta,GA,30062"
2,1/1/2018,"Cooking Matters for Teens, Kids",Strong4Life- Camp Twin Lakes,210,"S. Broad Street, Unit 5",Winder,30680,Clarke,Teens and Kids,Open Hand Atlanta,-83.7336346,33.9848343,NA,"210 S. Broad Street, Unit 5,Winder,GA,30680"
2,1/1/2018,"Cooking Matters for Kids, Adults and Teens","The Place of Forsyth County, Inc.",2550,The Place Circle,Cumming,30040,Forsyth,NA,Open Hand Atlanta,-84.102597,34.231872,NA,"2550 The Place Circle,Cumming,GA,30040"
2,1/1/2018,"Cooking Matters for Kids, Adults and Teens","The Family Health Center of Georgia, Inc.",868,"York Avenue, SW",Atlanta,30310,Fulton,NA,Open Hand Atlanta,-84.416374,33.736796,NA,"868 York Avenue, SW,Atlanta,GA,30310"
2,1/1/2018,"Cooking Matters for Kids, Adults and Teens",Audubon Creek,1111,Amber Drive,Norcross,30071,Gwinnett,NA,Open Hand Atlanta,-84.1886202,33.936282,NA,"1111 Amber Drive,Norcross,GA,30071"
2,1/1/2018,"Cooking Matters for Kids, Adults and Teens",Girls Inc. of Greater Atlanta,461,Manget St.,Marietta,30060,Cobb,NA,Open Hand Atlanta,-84.539133,33.9410934,NA,"461 Manget St.,Marietta,GA,30060"
2,1/1/2018,Cooking Matters for Adults (FVRx),FVRx Site 1-Big Bethel AME Church,220,Auburn Ave. NE,Atlanta,30303,Fulton,NA,Open Hand Atlanta,-84.3805299,33.7558334,NA,"220 Auburn Ave. NE,Atlanta,GA,30303"
2,1/1/2018,Cooking Matters for Adults (FVRx),FVRx Site 2-Atlanta Community Food Bank,732,Joseph E. Lowery Blvd. NW,Atlanta,30318,Fulton,NA,Open Hand Atlanta,-84.4186617,33.7743982,NA,"732 Joseph E. Lowery Blvd. NW,Atlanta,GA,30318"
2,1/1/2018,Cooking Matters for Adults (FVRx),FVRX Site 3-Action Ministries,458,Ponce de Leon Ave.,Atlanta,30308,Fulton,NA,Open Hand Atlanta,-84.3719889,33.7738913,NA,"458 Ponce de Leon Ave.,Atlanta,GA,30308"
2,3/23/2018,Cooking Matters for Adults,Cobb Senior Services- North Cobb Neighborhood Senior Center,4100,South Main St.,Acworth,30101,Cobb,Adults,Open Hand Atlanta,-84.6788379,34.0666666,NA,"4100 South Main St.,Acworth,GA,30101"
2,3/23/2018,"Cooking Matters for Adults, Teens and Kids",Wylde Center,1503,Hardee Street,Atlanta,30307,Fulton,"Teens, Kids, and Adults",Open Hand Atlanta,-84.3383425,33.7552579,NA,"1503 Hardee Street,Atlanta,GA,30307"
2,3/23/2018,Cooking Matters for Adults (55+),Savannah Gardens Senior Residences,501,Pennsylvania Ave.,Savannah,31404,Chatham,Adults,Open Hand Atlanta,-81.0599608,32.0623988,NA,"501 Pennsylvania Ave.,Savannah,GA,31404"
2,3/23/2018,Cooking Maters for Teens and Kids,Safe Harbor Children's Center,1526,Norwich Street,Brunswick,31520,Glynn,Kids and Teens,Open Hand Atlanta,-81.4914594,31.1508985,NA,"1526 Norwich Street,Brunswick,GA,31520"
2,4/3/2018,"Cooking Matters for Adults, Teens, and Kids",LaGrange Housing Authority,201,Chatham St.,LaGrange,30240,Troup,Kids and Teens,Open Hand Atlanta,-85.0301608,33.0229956,NA,"201 Chatham St.,LaGrange,GA,30240"
2,4/3/2018,Cooking Matters for Kids,Gould Elementary,4910,Pineland Drive,Savannah,31405,Chatham,Kids,Open Hand Atlanta,-81.186509,32.049013,NA,"4910 Pineland Drive,Savannah,GA,31405"
2,4/16/2018,Cooking Matters for Kids and Teens (Under 18),"Little Ones Learning Academy, After School Program",993,Forest Ave.,Forest Park,30297,Clayton,Ages 6-7,Open Hand Atlanta,-84.3576143,33.6232984,NA,"993 Forest Ave.,Forest Park,GA,30297"
2,4/16/2018,Cooking Matters for Adults (FVRx),Grady- GSU Urban Life Building,140,Decatur St SE,Atlanta,30303,Fulton,Adults,Open Hand Atlanta,-84.3856621,33.7521941,NA,"140 Decatur St SE,Atlanta,GA,30303"
2,4/17/2018,Cooking Matters for Adults,National Church Residences- Big Bethel Villages,500,Richard Allen Blvd.,Atlanta,30331,Fulton,Adults,Open Hand Atlanta,-84.5122807,33.739839,NA,"500 Richard Allen Blvd.,Atlanta,GA,30331"
2,4/17/2018,"Cooking Matters for Adults, Teens, and Kids","The Study Hall, Inc.",1010,Crew Street,Atlanta,30315,Fulton,Adults,Open Hand Atlanta,-84.389098,33.727716,NA,"1010 Crew Street,Atlanta,GA,30315"
2,4/17/2018,"Cooking Matters for Adults, Teens, and Kids",Hands of Hope Clinic,1010,Hospital Drive Bldg. B,Stockbridge,30281,Henry,"Adults, Kids and Teens",Open Hand Atlanta,-84.2258271,33.5094884,NA,"1010 Hospital Drive Bldg. B,Stockbridge,GA,30281"
2,4/17/2018,Cooking Matters for Teens and Kids,CPACS,120,Northwood Drive,Sandy Spring,30342,Fulton,Teens and Kids,Open Hand Atlanta,-84.382747,33.911571,NA,"120 Northwood Drive,Sandy Spring,GA,30342"
2,4/17/2018,Cooking Matters for Kids,High Hope Child Development Center,2732,S. Central Avenue,Tifton,31794,Tift,Kids,Open Hand Atlanta,-83.5174952,31.436855,NA,"2732 S. Central Avenue,Tifton,GA,31794"
2,4/17/2018,"Cooking Matters for Adults, Teens, and Kids",Southside Recreation Center,604,S. Oak Street,Valdosta,31601,Lowndes,"Adults, Kids and Teens",Open Hand Atlanta,-83.2808,30.8245,NA,"604 S. Oak Street,Valdosta,GA,31601"
2,4/17/2018,"Cooking Matters for Teens, Kids, and Adults",David S. Waller Unit- Boys and Girls Club,215,W. North Street,Valdosta,31602,Lowndes,"Adults, Kids and Teens",Open Hand Atlanta,-83.2840379,30.8360609,NA,"215 W. North Street,Valdosta,GA,31602"
2,4/17/2018,"Cooking Matters for Teens, Kids, and Adults",Don Reames Boys and Girls Club,614,N. Toombs Street,Valdosta,31602,Lowndes,"Adults, Kids and Teens",Open Hand Atlanta,-83.2838378,30.8366885,NA,"614 N. Toombs Street,Valdosta,GA,31602"
2,4/17/2018,"Cooking Matters for Teens, Kids, and Adults",Lake Laurie Boys and Girls Club,3628,Lake Laurie Drive,Valdosta,31605,Lowndes,"Adults, Kids and Teens",Open Hand Atlanta,-83.2823081,30.8973222,NA,"3628 Lake Laurie Drive,Valdosta,GA,31605"
2,4/17/2018,Cooking Matters for Teens and Adults,Worth County Middle School,1305,North Isabella Street,Sylvester,31791,Worth,"Adults, Teens",Open Hand Atlanta,-83.8349557,31.5479277,NA,"1305 North Isabella Street,Sylvester,GA,31791"
2,4/17/2018,Cooking Matters for Kids and Adults,"South Tifton Learning Center, Inc.",2304,Dorminey St,Tifton,31794,Tift,"Kids, Adults",Open Hand Atlanta,-83.5227832,31.4398974,NA,"2304 Dorminey St,Tifton,GA,31794"
2,5/7/2018,"Cooking Matters for Adults, Kids, and Teens","Urban Health and Wellness at Stewart Methodist Episcopal Church
",867,Metropolitan Pkwy. SW,Atlanta,30310,Fulton,"Kids, Adults, and Teens",Open Hand Atlanta,-84.4083616,33.7313333,NA,"867 Metropolitan Pkwy. SW,Atlanta,GA,30310"
2,5/7/2018,"Cooking Matters for Adults, Kids, and Teens",Favor House,1926,John Calvin Ave.,College Park,30337,Fulton,"Kids, Adults and Teens",Open Hand Atlanta,-84.4521964,33.6579147,NA,"1926 John Calvin Ave.,College Park,GA,30337"
2,5/7/2018,Cooking Matters for Teens and Adults,DeKalb CSB Program- Kirkwood Center,23,Warren St. SE,Atlanta,30317,DeKalb,Teens and Adults,Open Hand Atlanta,-84.3268678,33.7528969,NA,"23 Warren St. SE,Atlanta,GA,30317"
2,5/7/2018,Cooking Matters for Teens and Adults,DeKalb CSB Program- North DeKalb Center,3807,Clairmont Rd.,Chamblee,30341,DeKalb,Teens and Adults,Open Hand Atlanta,-84.3081275,33.8717469,NA,"3807 Clairmont Rd.,Chamblee,GA,30341"
2,5/7/2018,Cooking Matters for Teens and Adults,DeKalb CSB Program-Winn Way,455,Winn Way,Decatur,30030,DeKalb,Teens and Adults,Open Hand Atlanta,-84.2783679,33.7879472,NA,"455 Winn Way,Decatur,GA,30030"
3,1/1/2018,Child Care,Hart County Head Start Center/EHS/Pre-K,    500,    North Richardson Street  P O Box 956    ,Hartwell,30643,Hart,5 yrs >,HealthMPowers,-82.926829,34.3597798,range_interpolated,"    500     North Richardson Street  P O Box 956    ,Hartwell,GA,30643"
3,1/1/2018,Elem,Oliver,1725,Cheryl Leigh Dr,Riverdale,30296,Clayton,K-5,HealthMPowers,-84.4465017,33.5777817,rooftop,"1725 Cheryl Leigh Dr,Riverdale,GA,30296"
3,1/1/2018,Child Care,Early Edu-Care & Development Center,1127,Cimarron Court,Clarkston,30021,Dekalb,5 yrs >,HealthMPowers,-84.2186826,33.811948,rooftop,"1127 Cimarron Court,Clarkston,GA,30021"
3,1/1/2018,Middle School,King Middle School,545,Hill St SE,Atlanta,30312,APS,8-Jun,HealthMPowers,-84.3790476,33.7389006,rooftop,"545 Hill St SE,Atlanta,GA,30312"
3,1/1/2018,Child Care,Pure Love Learning Center,6120,Hwy 85,Riverdale,30274,Clayton,5 yrs >,HealthMPowers,-84.4089286,33.5878558,rooftop,"6120 Hwy 85,Riverdale,GA,30274"
3,1/1/2018,Child Care,Samantha Rawlings,9465,Knollcrest Blvd,Alpharetta,30022,Fulton,5 yrs >,HealthMPowers,-84.208495,34.010831,rooftop,"9465 Knollcrest Blvd,Alpharetta,GA,30022"
3,1/1/2018,High School,Bainbridge HS,1,Bearcat Blvd,Bainbridge,39819,Decatur,12-Sep,HealthMPowers,-84.4810867,30.8859474,rooftop,"1 Bearcat Blvd,Bainbridge,GA,39819"
3,1/1/2018,Elem,Pointe South,8482,Thomas Rd,Riverdale,30274,Clayton,K-5,HealthMPowers,-84.411262,33.523462,rooftop,"8482 Thomas Rd,Riverdale,GA,30274"
3,1/1/2018,after school,Mimms Club,1082,Univeter Road,Canton,30115,Cherokee,18-May,HealthMPowers,-84.4943127,34.1931246,rooftop,"1082 Univeter Road,Canton,GA,30115"
3,1/1/2018,High School,Wayne County HS,1,Jacket Dr.,Jesup,31545,Wayne,12-Sep,HealthMPowers,-81.9188662,31.6173256,rooftop,"1 Jacket Dr.,Jesup,GA,31545"
3,1/1/2018,Middle School,Appling Middle School,2997,2997 Blackshear Hwy,Baxley,31513,Bibb,8-Jun,HealthMPowers,-82.3412696,31.722373,range_interpolated,"2997 Blackshear Hwy,Baxley,GA,31513"
3,1/1/2018,Child Care,Glynn County Head Start Program,1,One Community Action Drive Ste. D,Brunswick,31520,Glynn,5 yrs >,HealthMPowers,-81.4787345,31.1821101,rooftop,"1 One Community Action Drive Ste. D,Brunswick,GA,31520"
3,1/1/2018,Elem,Craig-Houghton,1001,4th St,Augusta,30901,Richmond,K-5,HealthMPowers,-81.9618458,33.4625533,rooftop,"4th St,Augusta,GA,30901"
3,1/1/2018,Middle School,Ridgeview Middle School,5340,5340 S Trimble Rd,Atlanta,30342,Fulton,8-Jun,HealthMPowers,-84.3593981,33.8981377,rooftop,"5340 S Trimble Rd,Atlanta,GA,30342"
3,1/1/2018,Middle School,TJ Elder  Middle School,902,902 Linton Rd,Sandersville,31082,Washington,8-Jun,HealthMPowers,-82.8161366,33.0028082,rooftop,"902 Linton Rd,Sandersville,GA,31082"
3,1/1/2018,Child Care,McIntosh Head Start,1,One Community Action Drive Ste. D,Brunswick,31520,Glynn,5 yrs >,HealthMPowers,-81.4787345,31.1821101,rooftop,"1 One Community Action Drive Ste. D,Brunswick,GA,31520"
3,1/1/2018,Elem,Eagle Ridge (3-5),220,Abc Dr,Milledgeville,31061,Baldwin,5-Mar,HealthMPowers,-83.2656759,33.0885821,bing,"220 Abc Dr,Milledgeville,GA,31061"
3,1/1/2018,after school,Paulding Club,335A,Academy Drive,Dallas,30132,Paulding,18-May,HealthMPowers,-84.8319603,33.9106283,rooftop,"335A Academy Drive,Dallas,GA,30132"
3,1/1/2018,Child Care,Dawson County Head Start Pre/K,407,Allen,Dawsonville,30534,Dawson,5 yrs >,HealthMPowers,-84.1055921,34.4192148,range_interpolated,"407 Allen,Dawsonville,GA,30534"
3,1/1/2018,Child Care,Cobb/Allgood Head Start Pre-K (Ninth District),461,Allgood Rd NE,Marietta,30060,Cobb,5 yrs >,HealthMPowers,-84.5397248,33.9628011,rooftop,"461 Allgood Rd NE,Marietta,GA,30060"
3,1/1/2018,Middle School,Ballard Hudson Middle School,1070,Anthony Rd,Macon,31204,Bibb,8-Jun,HealthMPowers,-83.6578513,32.8186145,rooftop,"1070 Anthony Rd,Macon,GA,31204"
3,1/1/2018,Elem,Hartley ES,2230,Anthony Rd,Macon,31204,Bibb,K-5,HealthMPowers,-83.678934,32.821319,rooftop,"2230 Anthony Rd,Macon,GA,31204"
3,1/1/2018,Middle School,Jonesboro Middle School,1308,Arnold St.,Jonesboro,30236,Clayton,8-Jun,HealthMPowers,-84.3484793,33.5208388,rooftop,"1308 Arnold St.,Jonesboro,GA,30236"
3,1/1/2018,Child Care,Loving Arms,2900,Athena Lane #48E,Lithonia,30038,Dekalb,5 yrs >,HealthMPowers,-84.1449376,33.6978918,rooftop,"2900 Athena Lane #48E,Lithonia,GA,30038"
3,1/1/2018,Elem,Sugar Hill ES,3259,Athens Hwy,Gainesville,30507,Hall,k-5,HealthMPowers,-83.744647,34.232399,rooftop,"3259 Athens Hwy,Gainesville,GA,30507"
3,1/1/2018,Child Care,EE Butler Head Start,1300,Athens Street,Gainsville,30507,Hall,5 yrs >,HealthMPowers,-83.8014201,34.2874137,rooftop,"1300 Athens Street,Gainsville,GA,30507"
3,1/1/2018,Middle School,Campbell MS,3295,Atlanta Road SE,Smyrna,30080,Cobb,8-Jun,HealthMPowers,-84.4980115,33.8729594,rooftop,"3295 Atlanta Road SE,Smyrna,GA,30080"
3,1/1/2018,Child Care,Upson County Head Start/EHS,76,Atwater Place,Thomaston,30286,Upson,5 yrs >,HealthMPowers,-84.3391961,32.9510901,range_interpolated,"76 Atwater Place,Thomaston,GA,30286"
3,1/1/2018,Food Retail,US Food Store,315,Augusta Ave,Savannah,31415,Chatham,Adults 18+,HealthMPowers,-81.1284672,32.089605,range_interpolated,"315 Augusta Ave,Savannah,GA,31415"
3,1/1/2018,Elem,Barton Chapel,2329,Barton Chapel Rd,Augusta,30906,Richmond,K-5,HealthMPowers,-82.0889399,33.441647,rooftop,"2329 Barton Chapel Rd,Augusta,GA,30906"
3,1/1/2018,Child Care,Newton County Head Start,25,Lovers Lane,Covington,30016,Newton,5 yrs >,HealthMPowers,-83.921344,33.5563379,rooftop,"25 Lovers Lane,Covington,GA,30016"
3,1/1/2018,Child Care,Brunswick,419,Benedict Rd.,Glynn County Head Start,31520,Glynn,5 yrs >,HealthMPowers,-81.4787345,31.1821101,rooftop,"419 Benedict Rd.,Glynn County Head Start,GA,31520"
3,1/1/2018,Middle School,Young Middle School,3116,Benjamin E Mays Dr SW,Atlanta,30311,APS,8-Jun,HealthMPowers,-84.4893907,33.7327756,rooftop,"3116 Benjamin E Mays Dr SW,Atlanta,GA,30311"
3,1/1/2018,Middle School,Price Middle School,1670,Benjamin Weldon Bickers Dr SE,Atlanta,30315,APS,8-Jun,HealthMPowers,-84.3878461,33.709033,rooftop,"1670 Benjamin Weldon Bickers Dr SE,Atlanta,GA,30315"
3,1/1/2018,after school,Warren Club,790,Berne Street,Atlanta,30316,Fulton,18-May,HealthMPowers,-84.3615531,33.7368147,range_interpolated,"790 Berne Street,Atlanta,GA,30316"
3,1/1/2018,Middle School,Oak Hill Middle School,356,Blandy Rd NW,Milledgeville,31061,Baldwin,8-Jun,HealthMPowers,-83.2667422,33.083435,rooftop,"356 Blandy Rd NW,Milledgeville,GA,31061"
3,1/1/2018,Elem,Creekside (K-2),372,Blandy Rd NW,Milledgeville,31061,Baldwin,K-2,HealthMPowers,-83.2693231,33.0810193,rooftop,"372 Blandy Rd NW,Milledgeville,GA,31061"
3,1/1/2018,Elem,Blandy Hills (K-2),375,Blandy Rd NW,Milledgeville,31061,Baldwin,K-2,HealthMPowers,-83.268366,33.0865564,range_interpolated,"375 Blandy Rd NW,Milledgeville,GA,31061"
3,1/1/2018,Elem,Southfield ES,4375,Bloomfield Drive Ext,Macon,31206,Bibb,K-5,HealthMPowers,-83.6880675,32.7813699,rooftop,"4375 Bloomfield Drive Ext,Macon,GA,31206"
3,1/1/2018,Child Care,Harvest Rain Academy,51,Senoia Road,Fairburn,30213,Fulton,5 yrs >,HealthMPowers,-84.5838363,33.5624038,rooftop,"51 Senoia Road,Fairburn,GA,30213"
3,1/1/2018,Elem,Windsor Forest ES,414,Briar Cliff Circle,Savannah,31419,Chatham,K-5,HealthMPowers,-81.1434636,31.9748371,rooftop,"414 Briar Cliff Circle,Savannah,GA,31419"
3,1/1/2018,Elem,Brookdale ES,3600,Brookdale Ave,Macon,31204,Bibb,K-5,HealthMPowers,-83.6853377,32.8519352,rooftop,"3600 Brookdale Ave,Macon,GA,31204"
3,1/1/2018,Child Care,Child Care Network # 50,2476,Candler Road,Decatur,30032,Dekalb,5 yrs >,HealthMPowers,-84.2743447,33.7178643,rooftop,"2476 Candler Road,Decatur,GA,30032"
3,1/1/2018,Child Care,Henry County Head Start Center; Early Head Start and Pre-K Center/EHS,84,Carter Ave,Locust Grove,30248-3611,Henry,5 yrs >,HealthMPowers,-84.1132613,33.3479947,rooftop,"84 Carter Ave,Locust Grove,GA,30248-3611"
3,1/1/2018,Child Care,Franklin County Head Start Pre/K,84,Hartwell Road,Lavonia,30553,Franklin,5 yrs >,HealthMPowers,-83.097903,34.432487,range_interpolated,"84 Hartwell Road,Lavonia,GA,30553"
3,1/1/2018,Child Care,Mrs. Green's Learning Academy,680,Chatham Trail,Jonesboro,30238,Clayton,5 yrs >,HealthMPowers,-84.413003,33.5161006,rooftop,"680 Chatham Trail,Jonesboro,GA,30238"
3,1/1/2018,Child Care,Buford Head Start Center/Pre-K,84,Maddox Road,Buford,30518,Gwinette,5 yrs >,HealthMPowers,-83.9982517,34.0983754,rooftop,"84 Maddox Road,Buford,GA,30518"
3,1/1/2018,Child Care,Angels In Motion,260,Cherokee Road,Winterville,30683,Clarke,5 yrs >,HealthMPowers,-83.290312,33.9709916,range_interpolated,"260 Cherokee Road,Winterville,GA,30683"
3,1/1/2018,Child Care,Lethia P. Walker,2297,Cherokee Valley Circle,Lithonia,30058,Dekalb,5 yrs >,HealthMPowers,-84.1399077,33.7246499,rooftop,"2297 Cherokee Valley Circle,Lithonia,GA,30058"
3,1/1/2018,Elem,Church Street,7013,Church St,Riverdale,30274,Clayton,K-5,HealthMPowers,-84.418077,33.563362,rooftop,"7013 Church St,Riverdale,GA,30274"
3,1/1/2018,Middle School,Sequoyah Middle School,95,95 Valley Hill Rd SW,Riverdale,30274,Clayton,8-Jun,HealthMPowers,-84.3871067,33.5647263,rooftop,"95 Valley Hill Rd SW,Riverdale,GA,30274"
3,1/1/2018,Elem,Hodge ES,975,Clinch Street,Savannah,31405,Chatham,K-5,HealthMPowers,-81.11665,32.0473965,range_interpolated,"975 Clinch Street,Savannah,GA,31405"
3,1/1/2018,Elem,Alexander II ES,1156,College St,Macon,31201,Bibb,K-5,HealthMPowers,-83.644956,32.8328255,rooftop,"1156 College St,Macon,GA,31201"
3,1/1/2018,Middle School,Harper Archer Middle School,3399,Collier Dr NW,Atlanta,30331,APS,8-Jun,HealthMPowers,-84.4987545,33.7695811,rooftop,"3399 Collier Dr NW,Atlanta,GA,30331"
3,1/1/2018,Child Care,Choice Academy Child Care Center,5440,Covington Hwy,Decatur,30035,Dekalb,5 yrs >,HealthMPowers,-84.1916893,33.7308306,rooftop,"5440 Covington Hwy,Decatur,GA,30035"
3,1/1/2018,Elem,Taylor ES,2976,Crestline Dr,Macon,31204,Bibb,K-5,HealthMPowers,-83.677957,32.8762837,rooftop,"2976 Crestline Dr,Macon,GA,31204"
3,1/1/2018,Elem,Rice Creek (3-5),100,Mulberry Ave,Port Wentworth,31407,Chatham,5-Mar,HealthMPowers,-81.1944885,32.2188489,rooftop,"100 Mulberry Ave,Port Wentworth,GA,31407"
3,1/1/2018,Middle School,Rice Creek (6-8),100,Mulberry Ave,Port Wentworth,31407,Chatham,8-Jun,HealthMPowers,-81.1944885,32.2188489,rooftop,"100 Mulberry Ave,Port Wentworth,GA,31407"
3,1/1/2018,Child Care,Felicia Botherson,3135,Dogwood Drive,Hapeville,30354,Fulton,5 yrs >,HealthMPowers,-84.4087995,33.6686509,rooftop,"3135 Dogwood Drive,Hapeville,GA,30354"
3,1/1/2018,Elem,Blakeney ES,100,Olympic Dr,Waynesboro,30830,Burke,5-Mar,HealthMPowers,-81.9917187,33.0795354,rooftop,"100 Olympic Dr,Waynesboro,GA,30830"
3,1/1/2018,after school,Westside Atlanta Charter School,1903,Drew Dr.,Atlanta,30318,Fulton County,18-May,HealthMPowers,-84.4506881,33.7936678,rooftop,"1903 Drew Dr.,Atlanta,GA,30318"
3,1/1/2018,Middle School,Martha Puckett Middle School,475,Durrence Rd,Jesup,31545,Wayne,8-Jun,HealthMPowers,-81.9151453,31.6167162,rooftop,"475 Durrence Rd,Jesup,GA,31545"
3,1/1/2018,Elem,Wilkes Primary,910,E Robert Toombs Ave,Washington,30673,Wilkes,K-3,HealthMPowers,-82.7200973,33.72888,rooftop,"910 E Robert Toombs Ave,Washington,GA,30673"
3,1/1/2018,Food Retail,Food Truck 912: WW Law Community Center,909,E. Bolton St,Savannah,31401,Chatham,Adults 18+,HealthMPowers,-81.082939,32.0625829,rooftop,"909 E. Bolton St,Savannah,GA,31401"
3,1/1/2018,Elem,Midway,101,Carl Vinson Rd,Milledgeville,31061,Baldwin,K-5,HealthMPowers,-83.2278341,33.0192733,rooftop,"101 Carl Vinson Rd,Milledgeville,GA,31061"
3,1/1/2018,Food Retail,Dollar General,605,E. McCarty St,Sandersville,31082,Washington,Adults 18+,HealthMPowers,-82.8003667,32.9889801,rooftop,"605 E. McCarty St,Sandersville,GA,31082"
3,1/1/2018,after school,Draper Club,1462,E. Walker Avenue,College Park,30337,Fulton,18-May,HealthMPowers,-84.4363442,33.6635555,range_interpolated,"1462 E. Walker Avenue,College Park,GA,30337"
3,1/1/2018,Child Care,Liberty County Head Start,9099,E.B. Cooper,Liberty,31320,Liberty,5 yrs >,HealthMPowers,-81.4628001,31.747497,range_interpolated,"9099 E.B. Cooper,Liberty,GA,31320"
3,1/1/2018,after school,Jones Club,450,East Lake Drive,Decatur,30030,DeKalb,18-May,HealthMPowers,-84.3087484,33.7607621,rooftop,"450 East Lake Drive,Decatur,GA,30030"
3,1/1/2018,Elem,Wilkes ES,109,East St,Washington,30673,Wilkes,5-Apr,HealthMPowers,-82.7249626,33.7345798,rooftop,"109 East St,Washington,GA,30673"
3,1/1/2018,Elem,Garrett,1100,Eisenhower Dr,Augusta,30904,Richmond,K-5,HealthMPowers,-82.01194,33.509523,rooftop,"1100 Eisenhower Dr,Augusta,GA,30904"
3,1/1/2018,Elem,Campbell ES,91,Elder St,Fairburn,30213,Fulton,k-5,HealthMPowers,-84.5747844,33.5728915,rooftop,"91 Elder St,Fairburn,GA,30213"
3,1/1/2018,Elem,Hawthrone,10750,English Rd,Hampton,30228,Clayton,K-5,HealthMPowers,-84.3661553,33.4617812,rooftop,"10750 English Rd,Hampton,GA,30228"
3,1/1/2018,Child Care,Deborah Quinntella Bolden,713,Erin Drive,Stockbridge,30281,Henry,5 yrs >,HealthMPowers,-84.177683,33.568598,rooftop,"713 Erin Drive,Stockbridge,GA,30281"
3,1/1/2018,Middle School,Rex Mill Middle School,6380,Evans Dr,Rex,30273,Clayton,8-Jun,HealthMPowers,-84.2827935,33.5814828,rooftop,"6380 Evans Dr,Rex,GA,30273"
3,1/1/2018,Child Care,Banks County Head Start/Pre-K,335,Evans Street,Homer,30547,Banks,5 yrs >,HealthMPowers,-83.4979654,34.323977,rooftop,"335 Evans Street,Homer,GA,30547"
3,1/1/2018,Elem,Lamar Milledge,510,Eve St,Augusta,30904,Richmond,K-5,HealthMPowers,-81.9966679,33.4816247,rooftop,"510 Eve St,Augusta,GA,30904"
3,1/1/2018,Elem,Veterans,4901,Faubus Avenue,Macon,31204,Bibb,K-5,HealthMPowers,-83.715033,32.813616,rooftop,"4901 Faubus Avenue,Macon,GA,31204"
3,1/1/2018,Food Retail,Dollar General,102,Robins Drive Rd,Milledgeville,31061,Baldwin,Adults 18+,HealthMPowers,-83.1660381,33.0809904,rooftop,"102 Robins Drive Rd,Milledgeville,GA,31061"
3,1/1/2018,Middle School,Forest Park Middle School,930,Finley Dr.,Forest Park,30297,Clayton,8-Jun,HealthMPowers,-84.3593791,33.6217605,rooftop,"930 Finley Dr.,Forest Park,GA,30297"
3,1/1/2018,Elem,Kemp ES,10990,Folsom Rd,Hampton,30228,Clayton,5-Mar,HealthMPowers,-84.3573196,33.4555456,rooftop,"10990 Folsom Rd,Hampton,GA,30228"
3,1/1/2018,after school,Matthews Club,785,Fontaine Rd. SW,Mableton,30126,Cobb County,18-May,HealthMPowers,-84.5763507,33.821234,rooftop,"785 Fontaine Rd. SW,Mableton,GA,30126"
3,1/1/2018,Child Care,Little Ones Learning Center,993,Forest Ave,Forest Park,30297,Clayton,5 yrs >,HealthMPowers,-84.3575927,33.6230919,rooftop,"993 Forest Ave,Forest Park,GA,30297"
3,1/1/2018,Middle School,Howard Middle School,6600,Forsyth Rd,Macon,31210,Bibb,8-Jun,HealthMPowers,-83.7744614,32.9097054,range_interpolated,"6600 Forsyth Rd,Macon,GA,31210"
3,1/1/2018,Elem,Burdell-Hunt ES,972,Fort Hill St,Macon,31211,Bibb,K-5,HealthMPowers,-83.6132246,32.8531638,rooftop,"972 Fort Hill St,Macon,GA,31211"
3,1/1/2018,Child Care,Bright Beginnings ,782,Franklin Road,Marietta,30067,Cobb,5 yrs >,HealthMPowers,-84.5006809,33.9324783,rooftop,"782 Franklin Road,Marietta,GA,30067"
3,1/1/2018,Elem,Skyview ES,5700,Fulton Mill Rd,Lizella,31052,Bibb,K-5,HealthMPowers,-83.7576376,32.751026,rooftop,"5700 Fulton Mill Rd,Lizella,GA,31052"
3,1/1/2018,Elem,Pleasant Grove,150,Reagan Rd,Stockbridge,30281,Henry,K-5,HealthMPowers,-84.139409,33.5501788,rooftop,"150 Reagan Rd,Stockbridge,GA,30281"
3,1/1/2018,Elem,Riverdale,6253,Garden Walk Blvd,Riverdale,30274,Clayton,K-5,HealthMPowers,-84.3929465,33.5846581,rooftop,"6253 Garden Walk Blvd,Riverdale,GA,30274"
3,1/1/2018,Child Care,Norcross Head Start,5030,Georgia Belle Court,Norcross,30093,Gwinnett,5 yrs >,HealthMPowers,-84.165037,33.920383,rooftop,"5030 Georgia Belle Court,Norcross,GA,30093"
3,1/1/2018,Middle School,Hubert Middle School [COMMUNITY],768,Grant St,Chatham,31401,Chatham,8-Jun,HealthMPowers,-81.084934,32.066235,rooftop,"768 Grant St,Chatham,GA,31401"
3,1/1/2018,Elem,River’s Edge,205,North Bridge Rd,Fayetteville,30215,Clayton,K-5,HealthMPowers,-84.3896375,33.4204617,rooftop,"205 North Bridge Rd,Fayetteville,GA,30215"
3,1/1/2018,Elem,Riley ES,3522,Greenbriar Rd,Macon,31204,Bibb,K-5,HealthMPowers,-83.6898222,32.8341776,range_interpolated,"3522 Greenbriar Rd,Macon,GA,31204"
3,1/1/2018,after school,Douglas County Club,8828,Gurly Rd,Douglasville,30134,Douglas County,18-May,HealthMPowers,-84.7721637,33.74142,range_interpolated,"8828 Gurly Rd,Douglasville,GA,30134"
3,1/1/2018,Child Care,Pike County Head Start,10,Hall Street,Zebulon,30295,Pike,5 yrs >,HealthMPowers,-84.3436753,33.09534,rooftop,"10 Hall Street,Zebulon,GA,30295"
3,1/1/2018,Child Care,Pleasant Family Childcare,3941,Harvest Hill Road,Decatur,30034,Dekalb,5 yrs >,HealthMPowers,-84.2277162,33.69067,rooftop,"3941 Harvest Hill Road,Decatur,GA,30034"
3,1/1/2018,Child Care,Amodestri Childcare & Academy,11782,Hastings Bridge Rd.,Hampton,30228,Henry,5 yrs >,HealthMPowers,-84.3090706,33.4342202,range_interpolated,"11782 Hastings Bridge Rd.,Hampton,GA,30228"
3,1/1/2018,Middle School,Paul D. West Middle School,2376,Headland Dr,East Point,30344,Fulton,8-Jun,HealthMPowers,-84.4656883,33.6888358,rooftop,"2376 Headland Dr,East Point,GA,30344"
3,1/1/2018,Middle School,Weaver Middle School,2570,Heath Rd,Macon,31206,Bibb,8-Jun,HealthMPowers,-83.742565,32.8250979,rooftop,"2570 Heath Rd,Macon,GA,31206"
3,1/1/2018,Child Care,Davisboro Center,216,Steel Circle,Davisboro,31018,Washington,5 yrs >,HealthMPowers,-82.6112181,32.9719033,rooftop,"216 Steel Circle,Davisboro,GA,31018"
3,1/1/2018,Middle School,Miller Magnet Middle School,751,Hendley St,Macon,31204,Bibb,8-Jun,HealthMPowers,-83.658421,32.8392788,rooftop,"751 Hendley St,Macon,GA,31204"
3,1/1/2018,after school,Thomasville Heights Club,1835,"Henry Thomas Drive, SE,",Atlanta,30315,Fulton County,18-May,HealthMPowers,-84.3567474,33.7043578,rooftop,"1835 Henry Thomas Drive, SE,,Atlanta,GA,30315"
3,1/1/2018,Child Care,Kandolo Baze,1210,Herrington Road,Lawrenceville,30044,Gwinnett,5 yrs >,HealthMPowers,-84.082506,33.9502093,rooftop,"1210 Herrington Road,Lawrenceville,GA,30044"
3,1/1/2018,Elem,Jamestown ES,3637,Hiers Blvd,Hephzibah,30815,Richmond,K-5,HealthMPowers,-82.0940008,33.391756,range_interpolated,"3637 Hiers Blvd,Hephzibah,GA,30815"
3,1/1/2018,Elem,Arnold,216,Stockbridge Rd,Jonesboro,30236,Clayton,K-5,HealthMPowers,-84.3478865,33.5242396,rooftop,"216 Stockbridge Rd,Jonesboro,GA,30236"
3,1/1/2018,Elem,Roberta T. Smith,6340,Highway 42 S,Rex,30273,Clayton,K-5,HealthMPowers,-84.2874318,33.5816867,rooftop,"6340 Highway 42 S,Rex,GA,30273"
3,1/1/2018,Elem,Hephzibah,2542,Highway 88,Hephzibah,30815,Richmond,K-5,HealthMPowers,-82.0988058,33.3117724,rooftop,"2542 Highway 88,Hephzibah,GA,30815"
3,1/1/2018,Elem,Pooler ES,308,Holly Ave,Pooler,31322,Chatham,K-5,HealthMPowers,-81.2520844,32.1211169,rooftop,"308 Holly Ave,Pooler,GA,31322"
3,1/1/2018,Elem,Bruce ES,3660,Houston Ave,Macon,31206,Bibb,K-5,HealthMPowers,-83.651293,32.798561,rooftop,"3660 Houston Ave,Macon,GA,31206"
3,1/1/2018,Elem,Heard ES,6515,Houston Rd,Macon,31216,Bibb,K-5,HealthMPowers,-83.6873957,32.7232585,rooftop,"6515 Houston Rd,Macon,GA,31216"
3,1/1/2018,Elem,Stoneview,2629,Huber St,Lithonia,30058,Dekalb,K-5,HealthMPowers,-84.1196023,33.708089,rooftop,"2629 Huber St,Lithonia,GA,30058"
3,1/1/2018,Child Care,Sunshine House Hurricane Shoals,208,Hurricane Shoals Rd. NW,Lawrenceville,30046,Gwinnett,5 yrs >,HealthMPowers,-83.9980933,33.9680418,rooftop,"208 Hurricane Shoals Rd. NW,Lawrenceville,GA,30046"
3,1/1/2018,Child Care,The Learning Station,5135,Hwy 42,Ellenwood,30294,Clayton,5 yrs >,HealthMPowers,-84.3074133,33.6151905,rooftop,"5135 Hwy 42,Ellenwood,GA,30294"
3,1/1/2018,Child Care,Inspiring Scholars Academy,7425,Hwy 78,Winston,30187,Douglas,5 yrs >,HealthMPowers,-84.8175499,33.7291343,rooftop,"7425 Hwy 78,Winston,GA,30187"
3,1/1/2018,Food Retail,Dollar General,2622,Irwinton Rd,Milledgeville,31061,Baldwin,Adults 18+,HealthMPowers,-83.2348667,33.0380319,rooftop,"2622 Irwinton Rd,Milledgeville,GA,31061"
3,1/1/2018,Child Care,Sandersville Center,815,Jordan Mill Rd.,Sandersville,31082,Washington,5 yrs >,HealthMPowers,-82.791864,32.9909042,rooftop,"815 Jordan Mill Rd.,Sandersville,GA,31082"
3,1/1/2018,Elem,Peachcrest,1530,Joy Ln,Decatur,30032,Dekalb,K-5,HealthMPowers,-84.245527,33.747562,rooftop,"1530 Joy Ln,Decatur,GA,30032"
3,1/1/2018,Middle School,Kendrick Middle School,7971,Kendrick Rd,Jonesboro,30238,Clayton,8-Jun,HealthMPowers,-84.3875909,33.5366226,rooftop,"7971 Kendrick Rd,Jonesboro,GA,30238"
3,1/1/2018,Elem,Ridge Road Elementary,285,Ridge Rd.,Sandersville,31082,Washington,5-Mar,HealthMPowers,-82.7882113,32.9682304,rooftop,"285 Ridge Rd.,Sandersville,GA,31082"
3,1/1/2018,Elem,Suder,1400,Lake Jodeco Rd,Jonesboro,30236,Clayton,K-5,HealthMPowers,-84.345617,33.5150776,rooftop,"1400 Lake Jodeco Rd,Jonesboro,GA,30236"
3,1/1/2018,Elem,Lake Ridge,7900,Lake Ridge Cir,Riverdale,30296,Clayton,K-5,HealthMPowers,-84.4321961,33.539493,rooftop,"7900 Lake Ridge Cir,Riverdale,GA,30296"
3,1/1/2018,Elem,Ridge Road Primary,285,Ridge Rd.,Sandersville,31082,Washington,K-2,HealthMPowers,-82.7882113,32.9682304,rooftop,"285 Ridge Rd.,Sandersville,GA,31082"
3,1/1/2018,Child Care,Fannin Head Start,8731,Lakewood Hwy,Mineral Bluff,30559,Fannin,5 yrs >,HealthMPowers,-84.2749602,34.9135945,range_interpolated,"8731 Lakewood Hwy,Mineral Bluff,GA,30559"
3,1/1/2018,Child Care,Gilmer County Head Start,305,Calvin Jackson Dr.,Ellijay,30540,Gilmer,5 yrs >,HealthMPowers,-84.5039411,34.6845489,rooftop,"305 Calvin Jackson Dr.,Ellijay,GA,30540"
3,1/1/2018,Middle School,Long Middle School,3200,Latona Dr SW,Atlanta,30354,APS,8-Jun,HealthMPowers,-84.3952224,33.6666804,rooftop,"3200 Latona Dr SW,Atlanta,GA,30354"
3,1/1/2018,Elem,Lee Street,178,Lee St,Jonesboro,30236,Clayton,K-5,HealthMPowers,-84.3562734,33.5241982,rooftop,"178 Lee St,Jonesboro,GA,30236"
3,1/1/2018,Child Care,ABC Child Development Center with Head Start Classroom,305,South Baker Street,Alma,31510,Bacon,5 yrs >,HealthMPowers,-82.4564291,31.5392266,rooftop,"305 South Baker Street,Alma,GA,31510"
3,1/1/2018,Child Care,Habersham Head Start Center/Pre-K,291,Light Street,Baldwin,30511,Habersham,5 yrs >,HealthMPowers,-83.5334318,34.4983849,rooftop,"291 Light Street,Baldwin,GA,30511"
3,1/1/2018,Child Care,Wilkes County Center,115,Lincoln,Washington,30673,Wilkes,5 yrs >,HealthMPowers,-82.7635441,33.7412639,range_interpolated,"115 Lincoln,Washington,GA,30673"
3,1/1/2018,Child Care,Wandas Family Childcare,4143,Lindsey Drive,Decatur,30035,Dekalb,5 yrs >,HealthMPowers,-84.2200329,33.7313554,rooftop,"4143 Lindsey Drive,Decatur,GA,30035"
3,1/1/2018,Child Care,Douglas County Head Start (Ninth District),3833,Longview Drive,Douglasville,30135,Douglas,5 yrs >,HealthMPowers,-84.7014134,33.744164,rooftop,"3833 Longview Drive,Douglasville,GA,30135"
3,1/1/2018,Middle School,Lovejoy Middle School,1588,Lovejoy Rd,Hampton,30228,Clayton,8-Jun,HealthMPowers,-84.3403121,33.442851,rooftop,"1588 Lovejoy Rd,Hampton,GA,30228"
3,1/1/2018,Child Care,Trinity AME Early LC,604,Lynhurst Dr. SW,Atlanta,30311,Fulton,5 yrs >,HealthMPowers,-84.489434,33.7390064,rooftop,"604 Lynhurst Dr. SW,Atlanta,GA,30311"
3,1/1/2018,Elem,Thurgood Marshall,5885,Maddox Rd,Morrow,30260,Clayton,K-5,HealthMPowers,-84.3182416,33.5938083,rooftop,"5885 Maddox Rd,Morrow,GA,30260"
3,1/1/2018,Middle School,Riverdale Middle School,400,400 Roberts Dr,Riverdale,30274,Clayton,8-Jun,HealthMPowers,-84.4070483,33.5632119,NA,"400 Roberts Dr,Riverdale,GA,30274"
3,1/1/2018,Child Care,Cherokee County/Ralph Bunche preschool,400,Belletta Drive,Canton,30114,Cherokee,5 yrs >,HealthMPowers,-84.4887824,34.2602521,rooftop,"400 Belletta Drive,Canton,GA,30114"
3,1/1/2018,Elem,A. Brian Merry,415,Boy Scout Rd,Augusta,30909,Richmond,K-5,HealthMPowers,-82.039631,33.49607,rooftop,"415 Boy Scout Rd,Augusta,GA,30909"
3,1/1/2018,Elem,Union ES,4831,Mamie Carter Dr,Macon,31210,Bibb,K-5,HealthMPowers,-83.7235694,32.8353813,range_interpolated,"4831 Mamie Carter Dr,Macon,GA,31210"
3,1/1/2018,after school,Anderson Club,529,Manget Street,Marietta,30060,Cobb,18-May,HealthMPowers,-84.5391233,33.9396844,rooftop,"529 Manget Street,Marietta,GA,30060"
3,1/1/2018,Elem,Shuman ES,415,Goebel Ave,Savannah,31404,Chatham,K-5,HealthMPowers,-81.066834,32.061822,rooftop,"415 Goebel Ave,Savannah,GA,31404"
3,1/1/2018,after school,Adamsville Club,3201,Martin Luther King Jr Dr. SW,Atlanta,30311,Fulton County,18-May,HealthMPowers,-84.4918471,33.7541215,rooftop,"3201 Martin Luther King Jr Dr. SW,Atlanta,GA,30311"
3,1/1/2018,Elem,Wesley Lakes,685,McDonough Pkwy,McDonough,30253,Henry,K-5,HealthMPowers,-84.1699804,33.447453,rooftop,"685 McDonough Pkwy,McDonough,GA,30253"
3,1/1/2018,Elem,Kemp Primary,1090,McDonough Rd,Hampton,30228,Clayton,K-2,HealthMPowers,-84.357073,33.4538505,rooftop,"1090 McDonough Rd,Hampton,GA,30228"
3,1/1/2018,Child Care,Lumpkin County Head Start / Pre K,126,Mechanicsville Rd.,Dahlonega,30533,Lumpkin,5 yrs >,HealthMPowers,-83.9768904,34.5300079,range_interpolated,"126 Mechanicsville Rd.,Dahlonega,GA,30533"
3,1/1/2018,Elem,Haynie ES,1169,Morrow Rd,Morrow,30260,Clayton,K-5,HealthMPowers,-84.3530843,33.5861923,rooftop,"1169 Morrow Rd,Morrow,GA,30260"
3,1/1/2018,Elem,James Jackson ES,7711,Mount Zion Blvd.,Jonesboro,30236,Clayton,K-5,HealthMPowers,-84.3408263,33.5458559,rooftop,"7711 Mount Zion Blvd.,Jonesboro,GA,30236"
3,1/1/2018,Elem,Tara,937,Mount Zion Rd,Morrow,30260,Clayton,K-5,HealthMPowers,-84.3602129,33.5716931,rooftop,"937 Mount Zion Rd,Morrow,GA,30260"
3,1/1/2018,Elem,Mt. Zion Primary,2920,Mount Zion Rd,Jonesboro,30236,Clayton,K-2,HealthMPowers,-84.294978,33.556534,rooftop,"2920 Mount Zion Rd,Jonesboro,GA,30236"
3,1/1/2018,Elem,Mt. Zion ES,2984,Mount Zion Rd,Jonesboro,30236,Clayton,5-Mar,HealthMPowers,-84.2932834,33.5559981,rooftop,"2984 Mount Zion Rd,Jonesboro,GA,30236"
3,1/1/2018,Elem,Swint,500,Highway 138 SE,Jonesboro,30238,Clayton,K-5,HealthMPowers,-84.375435,33.534934,rooftop,"500 Highway 138 SE,Jonesboro,GA,30238"
3,1/1/2018,Middle School,Mundy's Mill Middle School,1251,Mundys Mill Rd,Jonesboro,30238,Clayton,8-Jun,HealthMPowers,-84.351161,33.48671,rooftop,"1251 Mundys Mill Rd,Jonesboro,GA,30238"
3,1/1/2018,Elem,Rollins,2160,Mura Dr,Augusta,30906,Richmond,K-5,HealthMPowers,-82.033713,33.40063,rooftop,"2160 Mura Dr,Augusta,GA,30906"
3,1/1/2018,Elem,Port Wentworth (K-2),507,S Coastal Hwy,Port Wentworth,31407,Chatham,K-2,HealthMPowers,-81.1588403,32.1416363,rooftop,"507 S Coastal Hwy,Port Wentworth,GA,31407"
3,1/1/2018,Food Retail,Market Place,821,N. Columbia St,Milledgeville,31061,Baldwin,Adults 18+,HealthMPowers,-83.2361801,33.0901384,rooftop,"821 N. Columbia St,Milledgeville,GA,31061"
3,1/1/2018,after school,Brookhaven Club,1330,N. Druid Hills Rd,Atlanta,30319,Dekalb County,18-May,HealthMPowers,-84.3387317,33.854479,rooftop,"1330 N. Druid Hills Rd,Atlanta,GA,30319"
3,1/1/2018,Elem,Lane,990,Newport Rd,Macon,31210,Bibb,K-5,HealthMPowers,-83.6948838,32.8915929,rooftop,"990 Newport Rd,Macon,GA,31210"
3,1/1/2018,Middle School,Bunche Middle School,1925,Niskey Lake Rd SW,Atlanta,30331,APS,8-Jun,HealthMPowers,-84.5305572,33.7012832,rooftop,"1925 Niskey Lake Rd SW,Atlanta,GA,30331"
3,1/1/2018,Child Care,Port Wentworth Elementary,507,South Coastal Highway,Port Wentworth,31407,Chatham,5 yrs >,HealthMPowers,-81.1588403,32.1416363,rooftop,"507 South Coastal Highway,Port Wentworth,GA,31407"
3,1/1/2018,Child Care,Pickens County Head Start Center/Pre-K,        529,North Head Start Road P O Box 469    ,Tate,30177,Pickens,5 yrs >,HealthMPowers,-84.3763139,34.40779,rooftop,"        529 North Head Start Road P O Box 469    ,Tate,GA,30177"
3,1/1/2018,Elem,Springdale,4965,Northside Dr,Macon,31210,Bibb,k-5,HealthMPowers,-83.719733,32.90498,rooftop,"4965 Northside Dr,Macon,GA,31210"
3,1/1/2018,Elem,Intermediate Literacy and Math Center,1215,Northwood Dr.,Augusta,30909,Richmond,5-Apr,HealthMPowers,-82.0160081,33.5165934,rooftop,"1215 Northwood Dr.,Augusta,GA,30909"
3,1/1/2018,Middle School,Coretta Scott King Middle (replacement),1190,Nortwest Drive NW,Atlanta,30318,APS,8-Jun,HealthMPowers,-84.4828304,33.790332,rooftop,"1190 Nortwest Drive NW,Atlanta,GA,30318"
3,1/1/2018,Elem,Bernd ES,4160,Ocmulgee East Blvd,Macon,31217,Bibb,K-5,HealthMPowers,-83.567815,32.81424,rooftop,"4160 Ocmulgee East Blvd,Macon,GA,31217"
3,1/1/2018,Elem,Southwest ES,6020,Ogeechee Rd,Savannah,31419,Savannah,K-5,HealthMPowers,-81.262388,32.000048,rooftop,"6020 Ogeechee Rd,Savannah,GA,31419"
3,1/1/2018,Child Care,Butts County Head Start/EHS,565,Recreation Drive,Jackson,30233,Butts,5 yrs >,HealthMPowers,-83.9464975,33.3009383,rooftop,"565 Recreation Drive,Jackson,GA,30233"
3,1/1/2018,Child Care,White County Head Start Center,676,Claude Sims Road,Cleveland,30528,White,5 yrs >,HealthMPowers,-83.7879769,34.6051987,rooftop,"676 Claude Sims Road,Cleveland,GA,30528"
3,1/1/2018,Child Care,Johnson County Center,80,Oglethorpe Street,Wrightsville,31096,Johnson,5 yrs >,HealthMPowers,-82.7238907,32.7207134,rooftop,"80 Oglethorpe Street,Wrightsville,GA,31096"
3,1/1/2018,Child Care,Rabun Head Start Center,1236,Old Hwy 411,Clayton,30525,Rabun,5 yrs >,HealthMPowers,-83.406584,34.859908,bing,"1236 Old Hwy 411,Clayton,GA,30525"
3,1/1/2018,after school,A. Worley Brown Club,5360,Old Norcross Road,Norcross,30071,Gwinnett,18-May,HealthMPowers,-84.1998875,33.9467267,rooftop,"5360 Old Norcross Road,Norcross,GA,30071"
3,1/1/2018,Elem,Anderson,4199,Old Rock Cut Rd,Conley,30288,Clayton,K-5,HealthMPowers,-84.3334042,33.6405123,rooftop,"4199 Old Rock Cut Rd,Conley,GA,30288"
3,1/1/2018,Child Care,Evans County,720,N. Church St.,Claxton,30417,Evans,5 yrs >,HealthMPowers,-81.914982,32.1740151,rooftop,"720 N. Church St.,Claxton,GA,30417"
3,1/1/2018,Elem,Callaway,120,Oriole Dr,Jonesboro,30238,Clayton,K-5,HealthMPowers,-84.3938812,33.5369328,rooftop,"120 Oriole Dr,Jonesboro,GA,30238"
3,1/1/2018,Elem,Eddie White Academy,11808,Panhandle Rd,Hampton,30228,Clayton,K-5,HealthMPowers,-84.3611167,33.4300202,rooftop,"11808 Panhandle Rd,Hampton,GA,30228"
3,1/1/2018,Elem,Elcan King,725,Louise St,Bainbridge,39819,Decatur County,K-4,HealthMPowers,-84.5688273,30.89383,rooftop,"725 Louise St,Bainbridge,GA,39819"
3,1/1/2018,Elem,Potter Street,725,Potter St,Bainbridge,39819,Decatur County,K-4,HealthMPowers,-84.5740364,30.8998235,range_interpolated,"725 Potter St,Bainbridge,GA,39819"
3,1/1/2018,Child Care,Lenora Respert FDCH,855,Wagon Wheel Circle,Fayetteville,30214,Henry,5 yrs >,HealthMPowers,-84.480012,33.5286475,rooftop,"855 Wagon Wheel Circle,Fayetteville,GA,30214"
3,1/1/2018,Child Care,Tomesha Biggs,2877,Partin Place,Ellenwood,30294,Dekalb,5 yrs >,HealthMPowers,-84.2960247,33.5979602,rooftop,"2877 Partin Place,Ellenwood,GA,30294"
3,1/1/2018,after school,Carroll County Club,106,Pearl St,Carrollton,30117,Carroll County,18-May,HealthMPowers,-85.0820051,33.5815989,range_interpolated,"106 Pearl St,Carrollton,GA,30117"
3,1/1/2018,after school,Harland Club,434,Peeples St,Atlanta,30310,Fulton County,18-May,HealthMPowers,-84.4203277,33.7426209,rooftop,"434 Peeples St,Atlanta,GA,30310"
3,1/1/2018,Middle School,Brown Middle School,765,Peeples St SW,Macon,30310,APS,8-Jun,HealthMPowers,-84.42201,33.73422,bing,"765 Peeples St SW,Macon,GA,30310"
